{ "results": [
  {
    "code":38831,
    "name":"בי''ס בר לב/בן יהודה",
    "town":"כפר סבא",
    "lat":32.18406,
    "lon":34.91731
  },
  {
    "code":38832,
    "name":"הרצל/צומת בילו",
    "town":"קרית עקרון",
    "lat":31.870029,
    "lon":34.819534
  },
  {
    "code":38833,
    "name":"הנחשול/הדייגים",
    "town":"ראשון לציון",
    "lat":31.984558,
    "lon":34.782815
  },
  {
    "code":38834,
    "name":"פריד/ששת הימים",
    "town":"רחובות",
    "lat":31.88855,
    "lon":34.790903
  },
  {
    "code":38836,
    "name":"תחנה מרכזית לוד/הורדה",
    "town":"לוד",
    "lat":31.956576,
    "lon":34.898125
  },
  {
    "code":38837,
    "name":"חנה אברך/וולקני",
    "town":"רחובות",
    "lat":31.892099,
    "lon":34.796386
  },
  {
    "code":38838,
    "name":"הרצל/משה שרת",
    "town":"קרית עקרון",
    "lat":31.858076,
    "lon":34.823817
  },
  {
    "code":38839,
    "name":"הבנים/אלי כהן",
    "town":"קרית עקרון",
    "lat":31.862305,
    "lon":34.821857
  },
  {
    "code":38840,
    "name":"ויצמן/הבנים",
    "town":"קרית עקרון",
    "lat":31.865085,
    "lon":34.822237
  },
  {
    "code":38841,
    "name":"האירוס/הכלנית",
    "town":"קרית עקרון",
    "lat":31.865255,
    "lon":34.818914
  },
  {
    "code":38842,
    "name":"הכלנית/הנרקיס",
    "town":"קרית עקרון",
    "lat":31.867421,
    "lon":34.818171
  },
  {
    "code":38844,
    "name":"אלי כהן/לוחמי הגטאות",
    "town":"קרית עקרון",
    "lat":31.862306,
    "lon":34.826617
  },
  {
    "code":38845,
    "name":"שבזי/שבת אחים",
    "town":"קרית עקרון",
    "lat":31.863507,
    "lon":34.828725
  },
  {
    "code":38846,
    "name":"שבזי/ויצמן",
    "town":"קרית עקרון",
    "lat":31.865063,
    "lon":34.82739
  },
  {
    "code":38847,
    "name":"חיים בר לב/שדרות יצחק רבין",
    "town":"ראשון לציון",
    "lat":31.976725,
    "lon":34.763351
  },
  {
    "code":38848,
    "name":"מרכז לבריאות הנפש לב השרון",
    "town":"צור משה",
    "lat":32.300344,
    "lon":34.912706
  },
  {
    "code":38849,
    "name":"מרכז לבריאות הנפש לב השרון",
    "town":"צור משה",
    "lat":32.301085,
    "lon":34.912824
  },
  {
    "code":38850,
    "name":"דוד אלעזר/אבנר בן נר",
    "town":"נס ציונה",
    "lat":31.925383,
    "lon":34.811377
  },
  {
    "code":38852,
    "name":"הולצמן/המדע",
    "town":"רחובות",
    "lat":31.914607,
    "lon":34.807864
  },
  {
    "code":38854,
    "name":"מחנה צריפין/מועדון",
    "town":"באר יעקב",
    "lat":31.963668,
    "lon":34.836363
  },
  {
    "code":38855,
    "name":"הרצל/גולני",
    "town":"קרית עקרון",
    "lat":31.856387,
    "lon":34.824998
  },
  {
    "code":38856,
    "name":"הרותם/הדגניות",
    "town":"רחובות",
    "lat":31.874963,
    "lon":34.81249
  },
  {
    "code":38860,
    "name":"מבוא הגפן/מורד התאנה",
    "town":"ינוב",
    "lat":32.305192,
    "lon":34.948447
  },
  {
    "code":38861,
    "name":"מבוא הגפן/ההרחבה",
    "town":"ינוב",
    "lat":32.303866,
    "lon":34.94478
  },
  {
    "code":38862,
    "name":"ההרחבה א",
    "town":"גאולים",
    "lat":32.302276,
    "lon":34.940279
  },
  {
    "code":38863,
    "name":"ההרחבה ב",
    "town":"גאולים",
    "lat":32.300114,
    "lon":34.939457
  },
  {
    "code":38864,
    "name":"ההרחבה/הותיקים",
    "town":"גאולים",
    "lat":32.298048,
    "lon":34.938645
  },
  {
    "code":38865,
    "name":"רשות שדות התעופה/העליה",
    "town":"נמל תעופה בן גוריון",
    "lat":31.991073,
    "lon":34.897545
  },
  {
    "code":38866,
    "name":"כנף/ברוש",
    "town":"נמל תעופה בן גוריון",
    "lat":31.998766,
    "lon":34.879724
  },
  {
    "code":38867,
    "name":"החבורה/דב הוז",
    "town":"רחובות",
    "lat":31.883104,
    "lon":34.818668
  },
  {
    "code":38869,
    "name":"בית הלוי ה",
    "town":"עמק חפר",
    "lat":32.34843,
    "lon":34.925979
  },
  {
    "code":38870,
    "name":"הראשונים/כביש 5700",
    "town":"הדר עם",
    "lat":32.352059,
    "lon":34.898884
  },
  {
    "code":38872,
    "name":"הגאון בן איש  חי/צאלון",
    "town":"רחובות",
    "lat":31.89749,
    "lon":34.775159
  },
  {
    "code":38873,
    "name":"עוקשי/לוי אשכול",
    "town":"רחובות",
    "lat":31.884223,
    "lon":34.806806
  },
  {
    "code":38875,
    "name":"מנוחה ונחלה/יהודה גורודיסקי",
    "town":"רחובות",
    "lat":31.896756,
    "lon":34.816722
  },
  {
    "code":38876,
    "name":"גורודסקי/יחיאל פלדי",
    "town":"רחובות",
    "lat":31.898456,
    "lon":34.823461
  },
  {
    "code":38877,
    "name":"דרך מנחם בגין/יעקב חזן",
    "town":"פתח תקווה",
    "lat":32.076531,
    "lon":34.904914
  },
  {
    "code":38878,
    "name":"דרך הפארק/הרב נריה",
    "town":"נתניה",
    "lat":32.299698,
    "lon":34.878495
  },
  {
    "code":38879,
    "name":"התאנה/הגפן",
    "town":"יציץ",
    "lat":31.865609,
    "lon":34.860027
  },
  {
    "code":38880,
    "name":"התאנה/האלון",
    "town":"יציץ",
    "lat":31.866772,
    "lon":34.864555
  },
  {
    "code":38881,
    "name":"דרך הפרחים/יסמין",
    "town":"גדרה",
    "lat":31.809325,
    "lon":34.784347
  },
  {
    "code":38882,
    "name":"אולפנא הרב בהרן/פינס",
    "town":"גדרה",
    "lat":31.803081,
    "lon":34.776037
  },
  {
    "code":38883,
    "name":"יצחק רבין/פנחס ספיר",
    "town":"גדרה",
    "lat":31.800629,
    "lon":34.777627
  },
  {
    "code":38884,
    "name":"מנחם בגין/יצחק רבין",
    "town":"גדרה",
    "lat":31.799224,
    "lon":34.782985
  },
  {
    "code":38885,
    "name":"חיים הרצוג/דולב",
    "town":"גדרה",
    "lat":31.800334,
    "lon":34.785069
  },
  {
    "code":38886,
    "name":"בית ספר גוונים/ארז",
    "town":"גדרה",
    "lat":31.802319,
    "lon":34.786735
  },
  {
    "code":38887,
    "name":"דרך האילנות/אלון",
    "town":"גדרה",
    "lat":31.804689,
    "lon":34.786201
  },
  {
    "code":38888,
    "name":"דרך האילנות/מנחם-בגין",
    "town":"גדרה",
    "lat":31.804929,
    "lon":34.785359
  },
  {
    "code":38889,
    "name":"העצמאות/וייצמן",
    "town":"גדרה",
    "lat":31.816669,
    "lon":34.78231
  },
  {
    "code":38890,
    "name":"וייצמן/מרבד הקסמים",
    "town":"גדרה",
    "lat":31.816553,
    "lon":34.779914
  },
  {
    "code":38891,
    "name":"צאלה/אלמוג",
    "town":"גדרה",
    "lat":31.801177,
    "lon":34.787186
  },
  {
    "code":38892,
    "name":"גן חצב/צאלה",
    "town":"גדרה",
    "lat":31.802145,
    "lon":34.786306
  },
  {
    "code":38895,
    "name":"בן-גוריון/פוקס",
    "town":"גדרה",
    "lat":31.806959,
    "lon":34.773504
  },
  {
    "code":38896,
    "name":"בן-גוריון/ארקין",
    "town":"גדרה",
    "lat":31.806181,
    "lon":34.775302
  },
  {
    "code":38897,
    "name":"בן-גוריון/בן גפן",
    "town":"גדרה",
    "lat":31.806074,
    "lon":34.775072
  },
  {
    "code":38898,
    "name":"לוי אשכול/הרב דוד ישראל",
    "town":"רחובות",
    "lat":31.884139,
    "lon":34.805397
  },
  {
    "code":38901,
    "name":"הרב דוד ישראל/אריה דולצין",
    "town":"רחובות",
    "lat":31.882681,
    "lon":34.805017
  },
  {
    "code":38903,
    "name":"קרוננברג/ארגמן",
    "town":"רחובות",
    "lat":31.878549,
    "lon":34.812028
  },
  {
    "code":38904,
    "name":"יעקב פריימן/בנימין שמוטקין",
    "town":"ראשון לציון",
    "lat":31.975432,
    "lon":34.813471
  },
  {
    "code":38905,
    "name":"אנילביץ'/שלום אש",
    "town":"ראשון לציון",
    "lat":31.981935,
    "lon":34.789391
  },
  {
    "code":38906,
    "name":"נחמיה/עובדיה",
    "town":"ראשון לציון",
    "lat":31.948504,
    "lon":34.822583
  },
  {
    "code":38907,
    "name":"יהודה הלוי/גבעתי",
    "town":"ראשון לציון",
    "lat":31.967733,
    "lon":34.816254
  },
  {
    "code":38908,
    "name":"ההגנה/חי''ש",
    "town":"רחובות",
    "lat":31.893826,
    "lon":34.824616
  },
  {
    "code":38909,
    "name":"קרית עקרון/כביש 411",
    "town":"מא גזר",
    "lat":31.854143,
    "lon":34.824708
  },
  {
    "code":38910,
    "name":"צומת חולדה/כביש 411",
    "town":"מא גזר",
    "lat":31.811898,
    "lon":34.900802
  },
  {
    "code":38911,
    "name":"גרינשפן/יגאל אלון",
    "town":"ראשון לציון",
    "lat":31.956889,
    "lon":34.814758
  },
  {
    "code":38912,
    "name":"השומר/האבות",
    "town":"ראשון לציון",
    "lat":31.960395,
    "lon":34.815128
  },
  {
    "code":38913,
    "name":"משה שרת/יעקב קנר",
    "town":"ראשון לציון",
    "lat":31.992324,
    "lon":34.756923
  },
  {
    "code":38914,
    "name":"הדייגים/הנחשול",
    "town":"ראשון לציון",
    "lat":31.984969,
    "lon":34.782615
  },
  {
    "code":38915,
    "name":"שדרות זלמן שניאור/שלמה המלך",
    "town":"ראשון לציון",
    "lat":31.980233,
    "lon":34.785412
  },
  {
    "code":38916,
    "name":"יוסף בורג/משואות יצחק",
    "town":"ראשון לציון",
    "lat":31.967898,
    "lon":34.817723
  },
  {
    "code":38917,
    "name":"יוסף בורג/רפפורט",
    "town":"ראשון לציון",
    "lat":31.96894,
    "lon":34.820041
  },
  {
    "code":38919,
    "name":"וייצמן/דרך יצחק רבין",
    "town":"נס ציונה",
    "lat":31.923042,
    "lon":34.798029
  },
  {
    "code":38920,
    "name":"שדרות משה דיין/יוסף לישנסקי",
    "town":"ראשון לציון",
    "lat":31.985835,
    "lon":34.763575
  },
  {
    "code":38921,
    "name":"השר חיים שפירא/יוסף ספיר",
    "town":"ראשון לציון",
    "lat":31.992582,
    "lon":34.751998
  },
  {
    "code":38922,
    "name":"השר חיים שפירא/הרב שלום ג'רופי",
    "town":"ראשון לציון",
    "lat":31.991915,
    "lon":34.753304
  },
  {
    "code":39001,
    "name":"שדרות יעקב/יוסף הנשיא",
    "town":"ראשון לציון",
    "lat":31.950253,
    "lon":34.819242
  },
  {
    "code":39002,
    "name":"שד. יעקב/יוסף הנשיא",
    "town":"ראשון לציון",
    "lat":31.951117,
    "lon":34.819757
  },
  {
    "code":39005,
    "name":"הרב יעקב ברמן/הרב יהודה צבי מלצר",
    "town":"רחובות",
    "lat":31.902305,
    "lon":34.81932
  },
  {
    "code":39006,
    "name":"ברמן/מלצר",
    "town":"רחובות",
    "lat":31.902573,
    "lon":34.819042
  },
  {
    "code":39007,
    "name":"הנשיא הראשון/מכון-ויצמן",
    "town":"רחובות",
    "lat":31.904576,
    "lon":34.815294
  },
  {
    "code":39008,
    "name":"הנשיא הראשון/קיפניס",
    "town":"רחובות",
    "lat":31.904454,
    "lon":34.815143
  },
  {
    "code":39009,
    "name":"שמחה הולצברג/אברהם ליכטנשטיין",
    "town":"באר יעקב",
    "lat":31.932565,
    "lon":34.831999
  },
  {
    "code":39010,
    "name":"שמחה הולצברג/אברהם ליכטנשטיין",
    "town":"באר יעקב",
    "lat":31.932648,
    "lon":34.831881
  },
  {
    "code":39011,
    "name":"ז'בוטינסקי/החרמון",
    "town":"באר יעקב",
    "lat":31.935912,
    "lon":34.837215
  },
  {
    "code":39012,
    "name":"הירדן/הערבה",
    "town":"באר יעקב",
    "lat":31.937672,
    "lon":34.838858
  },
  {
    "code":39013,
    "name":"הירדן/הערבה",
    "town":"באר יעקב",
    "lat":31.937757,
    "lon":34.839063
  },
  {
    "code":39014,
    "name":"האלונים/הדקל",
    "town":"באר יעקב",
    "lat":31.939037,
    "lon":34.831963
  },
  {
    "code":39015,
    "name":"האלונים/שמואל שפירא",
    "town":"באר יעקב",
    "lat":31.942269,
    "lon":34.831747
  },
  {
    "code":39016,
    "name":"האלונים/שמואל שפירא",
    "town":"באר יעקב",
    "lat":31.942286,
    "lon":34.831985
  },
  {
    "code":39017,
    "name":"האלונים א/הדקל",
    "town":"באר יעקב",
    "lat":31.939107,
    "lon":34.832166
  },
  {
    "code":39018,
    "name":"פארק תעשיות שילת",
    "town":"חסר מעמד",
    "lat":31.914873,
    "lon":35.023107
  },
  {
    "code":39019,
    "name":"פארק תעשיות שילת",
    "town":"חסר מעמד",
    "lat":31.914815,
    "lon":35.023027
  },
  {
    "code":39020,
    "name":"רמב''ם/רבי ישראל אבי חצירא",
    "town":"יד רמב''ם",
    "lat":31.903341,
    "lon":34.897667
  },
  {
    "code":39021,
    "name":"רבי יוסף בן נאיים/רמב''ם",
    "town":"יד רמב''ם",
    "lat":31.901161,
    "lon":34.897892
  },
  {
    "code":39022,
    "name":"רמב''ם/רבי יצחק בניזרי",
    "town":"יד רמב''ם",
    "lat":31.898805,
    "lon":34.899118
  },
  {
    "code":39023,
    "name":"רמב''ם/דוד עובדיה",
    "town":"יד רמב''ם",
    "lat":31.89707,
    "lon":34.902205
  },
  {
    "code":39024,
    "name":"תחנה מרכזית",
    "town":"מודיעין מכבים רעות",
    "lat":31.908517,
    "lon":35.007983
  },
  {
    "code":39028,
    "name":"חיים ברלב/מרדכי מקלף",
    "town":"מודיעין מכבים רעות",
    "lat":31.907846,
    "lon":35.000638
  },
  {
    "code":39029,
    "name":"חיים ברלב/מרדכי מקלף",
    "town":"מודיעין מכבים רעות",
    "lat":31.907622,
    "lon":35.000823
  },
  {
    "code":39034,
    "name":"אפרים קישון א",
    "town":"באר יעקב",
    "lat":31.942148,
    "lon":34.842193
  },
  {
    "code":39035,
    "name":"אלמוג סנטר/אפרים קישון",
    "town":"באר יעקב",
    "lat":31.941916,
    "lon":34.844071
  },
  {
    "code":39036,
    "name":"אלמוג סנטר/אפרים קישון",
    "town":"באר יעקב",
    "lat":31.941842,
    "lon":34.844147
  },
  {
    "code":39037,
    "name":"אפרים קישון א",
    "town":"באר יעקב",
    "lat":31.942036,
    "lon":34.8421
  },
  {
    "code":39039,
    "name":"גן חק''ל/רבאט",
    "town":"רמלה",
    "lat":31.93136,
    "lon":34.88526
  },
  {
    "code":39040,
    "name":"גן חק''ל/רבאט",
    "town":"רמלה",
    "lat":31.931538,
    "lon":34.885316
  },
  {
    "code":39041,
    "name":"קניון צ. רמלה לוד/דוכיפת",
    "town":"רמלה",
    "lat":31.933881,
    "lon":34.887655
  },
  {
    "code":39042,
    "name":"היצירה/התקווה",
    "town":"רמלה",
    "lat":31.929318,
    "lon":34.880076
  },
  {
    "code":39043,
    "name":"היצירה/התקווה",
    "town":"רמלה",
    "lat":31.929195,
    "lon":34.880004
  },
  {
    "code":39044,
    "name":"עמל/היצירה",
    "town":"רמלה",
    "lat":31.932465,
    "lon":34.881514
  },
  {
    "code":39045,
    "name":"נווה תרצה",
    "town":"רמלה",
    "lat":31.934488,
    "lon":34.879631
  },
  {
    "code":39046,
    "name":"חניוני הכלא/לוחמי ביתר",
    "town":"רמלה",
    "lat":31.93353,
    "lon":34.878864
  },
  {
    "code":39047,
    "name":"חניוני הכלא/לוחמי ביתר",
    "town":"רמלה",
    "lat":31.933457,
    "lon":34.878928
  },
  {
    "code":39048,
    "name":"ישראל פרנקל/הרמב''ם",
    "town":"רמלה",
    "lat":31.934896,
    "lon":34.863001
  },
  {
    "code":39049,
    "name":"פרנקל/ויתקין",
    "town":"רמלה",
    "lat":31.936138,
    "lon":34.86491
  },
  {
    "code":39050,
    "name":"פרנקל/ויתקין",
    "town":"רמלה",
    "lat":31.936053,
    "lon":34.864943
  },
  {
    "code":39051,
    "name":"ישראל פרנקל/הרמב''ם",
    "town":"רמלה",
    "lat":31.934808,
    "lon":34.863125
  },
  {
    "code":39052,
    "name":"יוספטל/הדס",
    "town":"רמלה",
    "lat":31.936316,
    "lon":34.857542
  },
  {
    "code":39054,
    "name":"עמיחי/מאיר בינט",
    "town":"רמלה",
    "lat":31.936308,
    "lon":34.856334
  },
  {
    "code":39055,
    "name":"השריון/הצנחנים",
    "town":"רמלה",
    "lat":31.933336,
    "lon":34.856045
  },
  {
    "code":39056,
    "name":"אהרון בוגנים/משה שרת",
    "town":"רמלה",
    "lat":31.933451,
    "lon":34.853891
  },
  {
    "code":39057,
    "name":"גרשון ש''ץ/שמחה הולצברג",
    "town":"רמלה",
    "lat":31.932535,
    "lon":34.853182
  },
  {
    "code":39058,
    "name":"הולצברג/שץ",
    "town":"רמלה",
    "lat":31.931533,
    "lon":34.853093
  },
  {
    "code":39059,
    "name":"אשכול/הרב שפירא",
    "town":"רמלה",
    "lat":31.929298,
    "lon":34.857167
  },
  {
    "code":39060,
    "name":"לוי אשכול/גטו ורשה",
    "town":"רמלה",
    "lat":31.927039,
    "lon":34.857171
  },
  {
    "code":39061,
    "name":"הבוסתן/ג'ובראן חליל",
    "town":"רמלה",
    "lat":31.922055,
    "lon":34.848357
  },
  {
    "code":39062,
    "name":"ג'ובראן חליל/התמר",
    "town":"רמלה",
    "lat":31.923338,
    "lon":34.849767
  },
  {
    "code":39063,
    "name":"אל בוסתן/התמר",
    "town":"רמלה",
    "lat":31.922488,
    "lon":34.850616
  },
  {
    "code":39064,
    "name":"אל בוסתן/התמר",
    "town":"רמלה",
    "lat":31.922574,
    "lon":34.850646
  },
  {
    "code":39065,
    "name":"השלום/טייטלבאום",
    "town":"רמלה",
    "lat":31.922473,
    "lon":34.853092
  },
  {
    "code":39066,
    "name":"שמשון הגיבור/המסגד",
    "town":"רמלה",
    "lat":31.926405,
    "lon":34.865735
  },
  {
    "code":39067,
    "name":"השלום/האלונים",
    "town":"רמלה",
    "lat":31.923027,
    "lon":34.853259
  },
  {
    "code":39068,
    "name":"ביאליק/חניתה",
    "town":"רמלה",
    "lat":31.924484,
    "lon":34.870366
  },
  {
    "code":39069,
    "name":"ביאליק/ירמיהו",
    "town":"רמלה",
    "lat":31.92055,
    "lon":34.868204
  },
  {
    "code":39070,
    "name":"א.ס לוי/סעדיה מרדכי",
    "town":"רמלה",
    "lat":31.921041,
    "lon":34.86087
  },
  {
    "code":39071,
    "name":"רזיאל/זכריה",
    "town":"רמלה",
    "lat":31.923671,
    "lon":34.862793
  },
  {
    "code":39072,
    "name":"חרוד א",
    "town":"ישרש",
    "lat":31.912559,
    "lon":34.849825
  },
  {
    "code":39073,
    "name":"חרוד/הירדן",
    "town":"ישרש",
    "lat":31.915848,
    "lon":34.848216
  },
  {
    "code":39075,
    "name":"הירדן/דן",
    "town":"ישרש",
    "lat":31.915405,
    "lon":34.852345
  },
  {
    "code":39076,
    "name":"עוזי חיטמן/שושנה דמארי",
    "town":"רמלה",
    "lat":31.917126,
    "lon":34.868273
  },
  {
    "code":39077,
    "name":"עוזי חיטמן/דליה רביקוביץ",
    "town":"רמלה",
    "lat":31.918749,
    "lon":34.870715
  },
  {
    "code":39078,
    "name":"עוזי חיטמן/חנוך לוין",
    "town":"רמלה",
    "lat":31.918695,
    "lon":34.873447
  },
  {
    "code":39079,
    "name":"אהוד מנור/חיטמן",
    "town":"רמלה",
    "lat":31.917247,
    "lon":34.874513
  },
  {
    "code":39080,
    "name":"שושנה דמארי/אהוד מנור",
    "town":"רמלה",
    "lat":31.91617,
    "lon":34.872133
  },
  {
    "code":39081,
    "name":"שושנה דמארי/אהוד מנור",
    "town":"רמלה",
    "lat":31.916343,
    "lon":34.872143
  },
  {
    "code":39082,
    "name":"אהוד מנור/עוזי חיטמן",
    "town":"רמלה",
    "lat":31.91749,
    "lon":34.874365
  },
  {
    "code":39083,
    "name":"עוזי חיטמן/שושנה דמארי",
    "town":"רמלה",
    "lat":31.917072,
    "lon":34.868374
  },
  {
    "code":39086,
    "name":"ברוש/דרך האורנים",
    "town":"שילת",
    "lat":31.921228,
    "lon":35.01542
  },
  {
    "code":39087,
    "name":"שקד/האורנים",
    "town":"שילת",
    "lat":31.922041,
    "lon":35.015836
  },
  {
    "code":39088,
    "name":"דרך החרוב/גפן",
    "town":"שילת",
    "lat":31.919711,
    "lon":35.020017
  },
  {
    "code":39089,
    "name":"דרך החרוב/גפן",
    "town":"שילת",
    "lat":31.919795,
    "lon":35.019979
  },
  {
    "code":39090,
    "name":"החרוב א",
    "town":"שילת",
    "lat":31.919183,
    "lon":35.023229
  },
  {
    "code":39091,
    "name":"החרוב א",
    "town":"שילת",
    "lat":31.919259,
    "lon":35.023285
  },
  {
    "code":39092,
    "name":"כפר רות",
    "town":"כפר רות",
    "lat":31.910544,
    "lon":35.034349
  },
  {
    "code":39093,
    "name":"כפר רות",
    "town":"כפר רות",
    "lat":31.910485,
    "lon":35.034441
  },
  {
    "code":39100,
    "name":"החוף הירוק",
    "town":"נתניה",
    "lat":32.270434,
    "lon":34.837694
  },
  {
    "code":39101,
    "name":"חוף פולג",
    "town":"נתניה",
    "lat":32.272109,
    "lon":34.837878
  },
  {
    "code":39102,
    "name":"רמת פולג",
    "town":"נתניה",
    "lat":32.272215,
    "lon":34.83788
  },
  {
    "code":39103,
    "name":"אהוד מנור/מנחם בגין",
    "town":"נתניה",
    "lat":32.274514,
    "lon":34.841504
  },
  {
    "code":39104,
    "name":"אהוד מנור/מנחם בגין",
    "town":"נתניה",
    "lat":32.274727,
    "lon":34.841608
  },
  {
    "code":39105,
    "name":"שזר\\אמנון ותמר",
    "town":"נתניה",
    "lat":32.275719,
    "lon":34.845201
  },
  {
    "code":39106,
    "name":"זלמן שז''ר/אמנון ותמר",
    "town":"נתניה",
    "lat":32.276562,
    "lon":34.846404
  },
  {
    "code":39107,
    "name":"אמנון ותמר/זלמן שז''ר",
    "town":"נתניה",
    "lat":32.276837,
    "lon":34.847509
  },
  {
    "code":39108,
    "name":"אודם\\שהם",
    "town":"בית יהושע",
    "lat":32.25658,
    "lon":34.864851
  },
  {
    "code":39109,
    "name":"שדרות גולדה מאיר/משעול קיפניס",
    "town":"נתניה",
    "lat":32.276777,
    "lon":34.851494
  },
  {
    "code":39110,
    "name":"553/מרכז מסחרי",
    "town":"נתניה",
    "lat":32.272698,
    "lon":34.856929
  },
  {
    "code":39111,
    "name":"יהלום/ספיר",
    "town":"בית יהושע",
    "lat":32.262023,
    "lon":34.862748
  },
  {
    "code":39112,
    "name":"יהלום/שני",
    "town":"בית יהושע",
    "lat":32.264217,
    "lon":34.862586
  },
  {
    "code":39113,
    "name":"מזכירות",
    "town":"בית יהושע",
    "lat":32.260034,
    "lon":34.8648
  },
  {
    "code":39114,
    "name":"האורזים/האר''י",
    "town":"נתניה",
    "lat":32.312269,
    "lon":34.869756
  },
  {
    "code":39115,
    "name":"איקאה",
    "town":"נתניה",
    "lat":32.274579,
    "lon":34.858842
  },
  {
    "code":39116,
    "name":"בני גאון/האומנות",
    "town":"נתניה",
    "lat":32.277275,
    "lon":34.862732
  },
  {
    "code":39117,
    "name":"קהילת צפת/שד. עובד בן עמי",
    "town":"נתניה",
    "lat":32.304907,
    "lon":34.843054
  },
  {
    "code":39118,
    "name":"אירוס הארגמן/חבצלת החוף",
    "town":"נתניה",
    "lat":32.285381,
    "lon":34.845139
  },
  {
    "code":39119,
    "name":"זלמן שז''ר/שד. בן גוריון",
    "town":"נתניה",
    "lat":32.277678,
    "lon":34.848669
  },
  {
    "code":39120,
    "name":"חבצלת החוף/אירוס הארגמן",
    "town":"נתניה",
    "lat":32.284452,
    "lon":34.84645
  },
  {
    "code":39121,
    "name":"שניאור/בן גוריון",
    "town":"נתניה",
    "lat":32.282674,
    "lon":34.847635
  },
  {
    "code":39122,
    "name":"זלמן שניאור/אריה לייב יפה",
    "town":"נתניה",
    "lat":32.282874,
    "lon":34.847634
  },
  {
    "code":39123,
    "name":"ש''י עגנון/קרן היסוד",
    "town":"נתניה",
    "lat":32.28296,
    "lon":34.849188
  },
  {
    "code":39124,
    "name":"ש''י עגנון/קרן היסוד",
    "town":"נתניה",
    "lat":32.283007,
    "lon":34.849376
  },
  {
    "code":39125,
    "name":"גבעת האירוסים/אירוס הארגמן",
    "town":"נתניה",
    "lat":32.287043,
    "lon":34.845879
  },
  {
    "code":39126,
    "name":"חבצלת החוף/אירוס הארגמן",
    "town":"נתניה",
    "lat":32.286259,
    "lon":34.848222
  },
  {
    "code":39127,
    "name":"הבריגדה היהודית/החפץ חיים",
    "town":"נתניה",
    "lat":32.296835,
    "lon":34.844671
  },
  {
    "code":39128,
    "name":"שד. בן גוריון/שמחה ארליך",
    "town":"נתניה",
    "lat":32.300586,
    "lon":34.844835
  },
  {
    "code":39129,
    "name":"דוד רזניק/החפץ חיים",
    "town":"נתניה",
    "lat":32.295325,
    "lon":34.845368
  },
  {
    "code":39130,
    "name":"לוי אשכול/יעקב דורי",
    "town":"נתניה",
    "lat":32.296581,
    "lon":34.846976
  },
  {
    "code":39131,
    "name":"אריה מוצקין/ד''ר סטופ",
    "town":"נתניה",
    "lat":32.296785,
    "lon":34.848263
  },
  {
    "code":39132,
    "name":"אריה מוצקין/ד''ר סטופ",
    "town":"נתניה",
    "lat":32.297039,
    "lon":34.848792
  },
  {
    "code":39133,
    "name":"הבריגדה היהודית/חיים ברלב",
    "town":"נתניה",
    "lat":32.298394,
    "lon":34.845473
  },
  {
    "code":39134,
    "name":"בלומנפלד/יעקב דורי",
    "town":"נתניה",
    "lat":32.298756,
    "lon":34.846594
  },
  {
    "code":39135,
    "name":"שדרות בן גוריון/שמחה ארליך",
    "town":"נתניה",
    "lat":32.299871,
    "lon":34.846949
  },
  {
    "code":39136,
    "name":"לוי אשכול/יעקב דורי",
    "town":"נתניה",
    "lat":32.298448,
    "lon":34.848027
  },
  {
    "code":39137,
    "name":"מוצקין/שמחה ארליך",
    "town":"נתניה",
    "lat":32.298449,
    "lon":34.849292
  },
  {
    "code":39138,
    "name":"אריה מוצקין/שמחה ארליך",
    "town":"נתניה",
    "lat":32.299315,
    "lon":34.849289
  },
  {
    "code":39139,
    "name":"בן עמי/שמחה ארליך",
    "town":"נתניה",
    "lat":32.302873,
    "lon":34.843182
  },
  {
    "code":39141,
    "name":"בית ספר אלדד/שדרות גולדה מאיר",
    "town":"נתניה",
    "lat":32.276738,
    "lon":34.85468
  },
  {
    "code":39142,
    "name":"בן עמי/קהילת צפת",
    "town":"נתניה",
    "lat":32.305204,
    "lon":34.842947
  },
  {
    "code":39144,
    "name":"'נאות גולדה א",
    "town":"נתניה",
    "lat":32.277827,
    "lon":34.851876
  },
  {
    "code":39145,
    "name":"'נאות גולדה ב",
    "town":"נתניה",
    "lat":32.278388,
    "lon":34.852233
  },
  {
    "code":39146,
    "name":"נאות גולדה\\חזני",
    "town":"נתניה",
    "lat":32.278717,
    "lon":34.852186
  },
  {
    "code":39147,
    "name":"פנקס/57",
    "town":"נתניה",
    "lat":32.323399,
    "lon":34.874747
  },
  {
    "code":39148,
    "name":"ש''י עגנון/יאנוש קורצ'אק",
    "town":"נתניה",
    "lat":32.280706,
    "lon":34.851744
  },
  {
    "code":39149,
    "name":"רופין/שד. פנחס לבון",
    "town":"נתניה",
    "lat":32.280912,
    "lon":34.85303
  },
  {
    "code":39150,
    "name":"ש''י עגנון/יצחק אפשטיין",
    "town":"נתניה",
    "lat":32.281577,
    "lon":34.850371
  },
  {
    "code":39151,
    "name":"ש''י עגנון/יצחק אפשטיין",
    "town":"נתניה",
    "lat":32.281165,
    "lon":34.851109
  },
  {
    "code":39152,
    "name":"זלמן שניאור/ש''י עגנון",
    "town":"נתניה",
    "lat":32.2839,
    "lon":34.849353
  },
  {
    "code":39153,
    "name":"לבון/עגנון",
    "town":"נתניה",
    "lat":32.282062,
    "lon":34.853327
  },
  {
    "code":39154,
    "name":"יצחק קצנלסון/ד''ר וייסלברגר",
    "town":"נתניה",
    "lat":32.284565,
    "lon":34.851903
  },
  {
    "code":39155,
    "name":"רוטנברג\\נורדאו",
    "town":"נתניה",
    "lat":32.279977,
    "lon":34.853851
  },
  {
    "code":39156,
    "name":"לבון\\אלנקווה",
    "town":"נתניה",
    "lat":32.285095,
    "lon":34.854726
  },
  {
    "code":39157,
    "name":"השר ישראל בר יהודה/נורדאו",
    "town":"נתניה",
    "lat":32.281378,
    "lon":34.856436
  },
  {
    "code":39158,
    "name":"מנדלי מוכר ספרים/נורדאו",
    "town":"נתניה",
    "lat":32.283807,
    "lon":34.85734
  },
  {
    "code":39160,
    "name":"יצחק קצנלסון/שדרות פנחס לבון",
    "town":"נתניה",
    "lat":32.28561,
    "lon":34.853652
  },
  {
    "code":39161,
    "name":"לבון/וייסלברגר תאודור",
    "town":"נתניה",
    "lat":32.285328,
    "lon":34.854522
  },
  {
    "code":39162,
    "name":"שד. בן צבי/שד. פנחס לבון",
    "town":"נתניה",
    "lat":32.28675,
    "lon":34.854833
  },
  {
    "code":39163,
    "name":"לבון/שלום עליכם",
    "town":"נתניה",
    "lat":32.286557,
    "lon":34.855052
  },
  {
    "code":39164,
    "name":"הרב אבו חצירא/הרב רפאל אנקווה",
    "town":"נתניה",
    "lat":32.285667,
    "lon":34.856351
  },
  {
    "code":39165,
    "name":"שדרות גיבורי ישראל/האומנות",
    "town":"נתניה",
    "lat":32.279278,
    "lon":34.86044
  },
  {
    "code":39166,
    "name":"גיבורי ישראל/האומנות",
    "town":"נתניה",
    "lat":32.276114,
    "lon":34.859674
  },
  {
    "code":39167,
    "name":"שדרות גיבורי ישראל/הבונים",
    "town":"נתניה",
    "lat":32.280076,
    "lon":34.860697
  },
  {
    "code":39168,
    "name":"שד. גיבורי ישראל/הבונים",
    "town":"נתניה",
    "lat":32.280788,
    "lon":34.861166
  },
  {
    "code":39170,
    "name":"שד. גיבורי ישראל/התרופה",
    "town":"נתניה",
    "lat":32.282743,
    "lon":34.861556
  },
  {
    "code":39171,
    "name":"האומנות/שד. גיבורי ישראל",
    "town":"נתניה",
    "lat":32.277785,
    "lon":34.86023
  },
  {
    "code":39172,
    "name":"האומנות/יד חרוצים",
    "town":"נתניה",
    "lat":32.278292,
    "lon":34.863477
  },
  {
    "code":39173,
    "name":"הבונים/יד חרוצים",
    "town":"נתניה",
    "lat":32.280079,
    "lon":34.864056
  },
  {
    "code":39174,
    "name":"שדרות גיבורי ישראל/התרופה",
    "town":"נתניה",
    "lat":32.283436,
    "lon":34.86201
  },
  {
    "code":39175,
    "name":"בית חרושת אביק",
    "town":"נתניה",
    "lat":32.28302,
    "lon":34.862134
  },
  {
    "code":39176,
    "name":"השיאים/יד חרוצים",
    "town":"נתניה",
    "lat":32.283697,
    "lon":34.865267
  },
  {
    "code":39177,
    "name":"בית חרושת טבע",
    "town":"נתניה",
    "lat":32.285463,
    "lon":34.862432
  },
  {
    "code":39178,
    "name":"בית חרושת אביק",
    "town":"נתניה",
    "lat":32.285429,
    "lon":34.862662
  },
  {
    "code":39179,
    "name":"הדרים/הראשונים",
    "town":"עין ורד",
    "lat":32.264317,
    "lon":34.931993
  },
  {
    "code":39180,
    "name":"האומנות/שד. גיבורי ישראל",
    "town":"נתניה",
    "lat":32.277734,
    "lon":34.859942
  },
  {
    "code":39181,
    "name":"השלום\\הגביש",
    "town":"נתניה",
    "lat":32.286303,
    "lon":34.863837
  },
  {
    "code":39182,
    "name":"המחשב/הצורן",
    "town":"נתניה",
    "lat":32.287614,
    "lon":34.865215
  },
  {
    "code":39183,
    "name":"עירייה",
    "town":"נתניה",
    "lat":32.289635,
    "lon":34.86572
  },
  {
    "code":39184,
    "name":"יצחק גרינבוים/אפרים אלנקווה",
    "town":"נתניה",
    "lat":32.294994,
    "lon":34.849667
  },
  {
    "code":39185,
    "name":"יצחק גרינבוים/ד''ר שמורק",
    "town":"נתניה",
    "lat":32.294704,
    "lon":34.851791
  },
  {
    "code":39186,
    "name":"גרינבוים/בן צבי",
    "town":"נתניה",
    "lat":32.294484,
    "lon":34.851985
  },
  {
    "code":39187,
    "name":"בן צבי/גרנבוים",
    "town":"נתניה",
    "lat":32.293898,
    "lon":34.852491
  },
  {
    "code":39188,
    "name":"משטרה/בן צבי",
    "town":"נתניה",
    "lat":32.295136,
    "lon":34.852982
  },
  {
    "code":39189,
    "name":"הנרייטה סולד/סטופ",
    "town":"נתניה",
    "lat":32.29569,
    "lon":34.851774
  },
  {
    "code":39190,
    "name":"הנביאים/שד. בן צבי",
    "town":"נתניה",
    "lat":32.29686,
    "lon":34.853099
  },
  {
    "code":39191,
    "name":"הנביאים/נצח ישראל",
    "town":"נתניה",
    "lat":32.297184,
    "lon":34.85401
  },
  {
    "code":39193,
    "name":"שד. בן צבי/שמחה ארליך",
    "town":"נתניה",
    "lat":32.297873,
    "lon":34.85357
  },
  {
    "code":39194,
    "name":"יחזקאל\\הנביאים",
    "town":"נתניה",
    "lat":32.297381,
    "lon":34.855518
  },
  {
    "code":39195,
    "name":"בן צבי/פלוגת מכבי",
    "town":"נתניה",
    "lat":32.300044,
    "lon":34.853803
  },
  {
    "code":39196,
    "name":"בן צבי/נחום",
    "town":"נתניה",
    "lat":32.301071,
    "lon":34.85428
  },
  {
    "code":39197,
    "name":"נחום/ישעיהו",
    "town":"נתניה",
    "lat":32.300554,
    "lon":34.854915
  },
  {
    "code":39198,
    "name":"נחום/ישעיהו",
    "town":"נתניה",
    "lat":32.30046,
    "lon":34.854938
  },
  {
    "code":39199,
    "name":"בית הכנסת הבוכרים/בן בוזי",
    "town":"נתניה",
    "lat":32.297593,
    "lon":34.855672
  },
  {
    "code":39200,
    "name":"יחזקאל בן בוזי/מרים",
    "town":"נתניה",
    "lat":32.298663,
    "lon":34.855904
  },
  {
    "code":39201,
    "name":"'יחזקאל/נחום א",
    "town":"נתניה",
    "lat":32.299807,
    "lon":34.856412
  },
  {
    "code":39202,
    "name":"בית ספר ריגלר/חטיבת אלכסנדרוני",
    "town":"נתניה",
    "lat":32.301304,
    "lon":34.849934
  },
  {
    "code":39203,
    "name":"בן צבי/נחום",
    "town":"נתניה",
    "lat":32.302252,
    "lon":34.854288
  },
  {
    "code":39204,
    "name":"בית ספר טשרניחובסקי/בן צבי",
    "town":"נתניה",
    "lat":32.309555,
    "lon":34.854597
  },
  {
    "code":39205,
    "name":"בית ספר טשרניחובסקי/בן צבי",
    "town":"נתניה",
    "lat":32.309604,
    "lon":34.854845
  },
  {
    "code":39206,
    "name":"בי''ס שפירא",
    "town":"נתניה",
    "lat":32.294,
    "lon":34.858459
  },
  {
    "code":39207,
    "name":"מרכז גריאטרי דורות/הנביאים",
    "town":"נתניה",
    "lat":32.296944,
    "lon":34.858045
  },
  {
    "code":39208,
    "name":"בן עמי/קניג",
    "town":"נתניה",
    "lat":32.310254,
    "lon":34.844708
  },
  {
    "code":39209,
    "name":"בן עמי\\הילה",
    "town":"נתניה",
    "lat":32.31331,
    "lon":34.845813
  },
  {
    "code":39210,
    "name":"בן עמי\\צהלה",
    "town":"נתניה",
    "lat":32.314372,
    "lon":34.845906
  },
  {
    "code":39211,
    "name":"שד. עובד בן עמי/ברוך רם",
    "town":"נתניה",
    "lat":32.316395,
    "lon":34.846121
  },
  {
    "code":39212,
    "name":"ז'בוטינסקי\\סמיל",
    "town":"נתניה",
    "lat":32.321314,
    "lon":34.848636
  },
  {
    "code":39213,
    "name":"שד. בן אב''י/הרעות",
    "town":"נתניה",
    "lat":32.319416,
    "lon":34.849156
  },
  {
    "code":39214,
    "name":"ז'בוטינסקי/קרליבך",
    "town":"נתניה",
    "lat":32.324404,
    "lon":34.849462
  },
  {
    "code":39215,
    "name":"בן צבי/הגר''א",
    "town":"נתניה",
    "lat":32.310933,
    "lon":34.854866
  },
  {
    "code":39216,
    "name":"שד. בן צבי/היהלומן אברהם",
    "town":"נתניה",
    "lat":32.311082,
    "lon":34.855143
  },
  {
    "code":39217,
    "name":"בית ספר טשרניחובסקי/הגר''א",
    "town":"נתניה",
    "lat":32.310361,
    "lon":34.857212
  },
  {
    "code":39218,
    "name":"בן שלום\\בנימין",
    "town":"נתניה",
    "lat":32.3134,
    "lon":34.855784
  },
  {
    "code":39220,
    "name":"שד. בנימין/שלום שבזי",
    "town":"נתניה",
    "lat":32.315197,
    "lon":34.85428
  },
  {
    "code":39221,
    "name":"שד. בנימין/הרב טביב",
    "town":"נתניה",
    "lat":32.315887,
    "lon":34.854722
  },
  {
    "code":39222,
    "name":"שד. בן אב''י/שד. בנימין",
    "town":"נתניה",
    "lat":32.317684,
    "lon":34.854885
  },
  {
    "code":39223,
    "name":"עובדיה בן שלום/רמב''ם",
    "town":"נתניה",
    "lat":32.315163,
    "lon":34.856743
  },
  {
    "code":39224,
    "name":"עובדיה בן שלום/רמב''ם",
    "town":"נתניה",
    "lat":32.31579,
    "lon":34.857287
  },
  {
    "code":39225,
    "name":"אליעזר בן יהודה/אברהם אבו שדיד",
    "town":"נתניה",
    "lat":32.319667,
    "lon":34.851035
  },
  {
    "code":39226,
    "name":"סמילנסקי/ירמיהו הלפרין",
    "town":"נתניה",
    "lat":32.322009,
    "lon":34.849708
  },
  {
    "code":39228,
    "name":"סמילנסקי/שדרות ירושלים",
    "town":"נתניה",
    "lat":32.324634,
    "lon":34.852055
  },
  {
    "code":39229,
    "name":"דיזנגוף/ירושלים",
    "town":"נתניה",
    "lat":32.326185,
    "lon":34.851931
  },
  {
    "code":39230,
    "name":"סמילנסקי/שד. ירושלים",
    "town":"נתניה",
    "lat":32.324913,
    "lon":34.85277
  },
  {
    "code":39231,
    "name":"שד. בן אב''י/אייזיק רמבה",
    "town":"נתניה",
    "lat":32.318279,
    "lon":34.854297
  },
  {
    "code":39232,
    "name":"שד. בן אב''י/שד. בנימין",
    "town":"נתניה",
    "lat":32.318437,
    "lon":34.855357
  },
  {
    "code":39233,
    "name":"שד. בנימין/תחכמוני",
    "town":"נתניה",
    "lat":32.320306,
    "lon":34.855532
  },
  {
    "code":39234,
    "name":"שד. בנימין/תחכמוני",
    "town":"נתניה",
    "lat":32.321473,
    "lon":34.856081
  },
  {
    "code":39235,
    "name":"שד.ירושלים/שד. בנימין",
    "town":"נתניה",
    "lat":32.323667,
    "lon":34.855526
  },
  {
    "code":39236,
    "name":"שד. בנימין/שד. ירושלים",
    "town":"נתניה",
    "lat":32.32387,
    "lon":34.856695
  },
  {
    "code":39237,
    "name":"שד. בנימין/שד. ירושלים",
    "town":"נתניה",
    "lat":32.324201,
    "lon":34.856547
  },
  {
    "code":39238,
    "name":"חרלפ\\הגרא",
    "town":"נתניה",
    "lat":32.31136,
    "lon":34.860073
  },
  {
    "code":39239,
    "name":"האר''י/דן שומרון",
    "town":"נתניה",
    "lat":32.312049,
    "lon":34.860675
  },
  {
    "code":39240,
    "name":"פתח תקווה/אצ''ל",
    "town":"נתניה",
    "lat":32.317997,
    "lon":34.858004
  },
  {
    "code":39242,
    "name":"פתח תקווה/בן אבי",
    "town":"נתניה",
    "lat":32.317978,
    "lon":34.857753
  },
  {
    "code":39243,
    "name":"פתח תקווה/טיומקין",
    "town":"נתניה",
    "lat":32.321373,
    "lon":34.859336
  },
  {
    "code":39244,
    "name":"פתח תקווה/טיומקין",
    "town":"נתניה",
    "lat":32.321309,
    "lon":34.859505
  },
  {
    "code":39245,
    "name":"פתח תקווה/החלוצים",
    "town":"נתניה",
    "lat":32.325907,
    "lon":34.860642
  },
  {
    "code":39246,
    "name":"הרצל/עולי הגרדום",
    "town":"נתניה",
    "lat":32.325524,
    "lon":34.864686
  },
  {
    "code":39247,
    "name":"הרצל/עולי הגרדום",
    "town":"נתניה",
    "lat":32.325631,
    "lon":34.864975
  },
  {
    "code":39248,
    "name":"אוסישקין/שד. ירושלים",
    "town":"נתניה",
    "lat":32.326482,
    "lon":34.851215
  },
  {
    "code":39249,
    "name":"אוסישקין/ראשון לציון",
    "town":"נתניה",
    "lat":32.329177,
    "lon":34.851366
  },
  {
    "code":39250,
    "name":"דיזנגוף/דוד רמז",
    "town":"נתניה",
    "lat":32.32771,
    "lon":34.852698
  },
  {
    "code":39251,
    "name":"כיכר העצמאות",
    "town":"נתניה",
    "lat":32.331073,
    "lon":34.851149
  },
  {
    "code":39252,
    "name":"דיזנגוף/הרצל",
    "town":"נתניה",
    "lat":32.329626,
    "lon":34.854317
  },
  {
    "code":39253,
    "name":"ששת הימים\\ויצמן",
    "town":"נתניה",
    "lat":32.331575,
    "lon":34.859631
  },
  {
    "code":39254,
    "name":"כיכר פרלמן",
    "town":"נתניה",
    "lat":32.33228,
    "lon":34.856509
  },
  {
    "code":39255,
    "name":"דוד המלך/שד. ניצה",
    "town":"נתניה",
    "lat":32.334329,
    "lon":34.852307
  },
  {
    "code":39256,
    "name":"בי''ס יהודה הנשיא",
    "town":"נתניה",
    "lat":32.337778,
    "lon":34.854235
  },
  {
    "code":39258,
    "name":"אנדריוס/בורוכוב",
    "town":"נתניה",
    "lat":32.335749,
    "lon":34.856207
  },
  {
    "code":39259,
    "name":"בורוכוב/יהודה הנשיא",
    "town":"נתניה",
    "lat":32.337897,
    "lon":34.856474
  },
  {
    "code":39260,
    "name":"בורוכוב/יהודה הנשיא",
    "town":"נתניה",
    "lat":32.338191,
    "lon":34.856327
  },
  {
    "code":39261,
    "name":"ד''ר יהושע טהון/ליאון רייך",
    "town":"נתניה",
    "lat":32.33998,
    "lon":34.856592
  },
  {
    "code":39262,
    "name":"הרב הרצוג/שלמה המלך",
    "town":"נתניה",
    "lat":32.34083,
    "lon":34.854259
  },
  {
    "code":39263,
    "name":"יהושע טהון\\איכי",
    "town":"נתניה",
    "lat":32.339576,
    "lon":34.856414
  },
  {
    "code":39264,
    "name":"יהושע טהון/הרצוג",
    "town":"נתניה",
    "lat":32.340979,
    "lon":34.856579
  },
  {
    "code":39265,
    "name":"ד''ר יהושע טהון/הרב הרצוג",
    "town":"נתניה",
    "lat":32.341278,
    "lon":34.856355
  },
  {
    "code":39267,
    "name":"תחנה מרכזית",
    "town":"נתניה",
    "lat":32.327106,
    "lon":34.858114
  },
  {
    "code":39269,
    "name":"ויצמן/הרצל",
    "town":"נתניה",
    "lat":32.328953,
    "lon":34.858496
  },
  {
    "code":39270,
    "name":"שוק עירוני",
    "town":"נתניה",
    "lat":32.330275,
    "lon":34.858987
  },
  {
    "code":39271,
    "name":"ויצמן/ששת הימים",
    "town":"נתניה",
    "lat":32.33126,
    "lon":34.85885
  },
  {
    "code":39272,
    "name":"מלחמת ששת הימים/ישראל זנגוויל",
    "town":"נתניה",
    "lat":32.331517,
    "lon":34.861524
  },
  {
    "code":39273,
    "name":"הרצל/מינץ",
    "town":"נתניה",
    "lat":32.326819,
    "lon":34.862472
  },
  {
    "code":39274,
    "name":"הרצל/בנימין מינץ",
    "town":"נתניה",
    "lat":32.326175,
    "lon":34.863337
  },
  {
    "code":39275,
    "name":"דרך רזיאל/היהלום",
    "town":"נתניה",
    "lat":32.329126,
    "lon":34.861776
  },
  {
    "code":39276,
    "name":"דרך רזיאל/מלחמת ששת הימים",
    "town":"נתניה",
    "lat":32.331694,
    "lon":34.863255
  },
  {
    "code":39277,
    "name":"דרך רזיאל/מלחמת ששת הימים",
    "town":"נתניה",
    "lat":32.331629,
    "lon":34.86348
  },
  {
    "code":39278,
    "name":"הרב יצחק ניסנבוים/משה גליקסון",
    "town":"נתניה",
    "lat":32.33108,
    "lon":34.865071
  },
  {
    "code":39279,
    "name":"דרך רזיאל/הרב ריינס",
    "town":"נתניה",
    "lat":32.33235,
    "lon":34.864247
  },
  {
    "code":39280,
    "name":"דרך רזיאל/הרב ריינס",
    "town":"נתניה",
    "lat":32.333,
    "lon":34.865205
  },
  {
    "code":39281,
    "name":"י.ח. ברנר/שד. חיים וייצמן",
    "town":"נתניה",
    "lat":32.334658,
    "lon":34.859207
  },
  {
    "code":39282,
    "name":"ויצמן\\שפירא משה",
    "town":"נתניה",
    "lat":32.334679,
    "lon":34.859447
  },
  {
    "code":39283,
    "name":"שדרות וייצמן/יהודה הנשיא",
    "town":"נתניה",
    "lat":32.33767,
    "lon":34.859542
  },
  {
    "code":39284,
    "name":"וייצמן/שרת",
    "town":"נתניה",
    "lat":32.337702,
    "lon":34.859783
  },
  {
    "code":39285,
    "name":"וייצמן/שרת",
    "town":"נתניה",
    "lat":32.339295,
    "lon":34.859997
  },
  {
    "code":39286,
    "name":"וייצמן/איכילוב",
    "town":"נתניה",
    "lat":32.339836,
    "lon":34.859845
  },
  {
    "code":39287,
    "name":"הרב הרצוג/שדרות חיים וייצמן",
    "town":"נתניה",
    "lat":32.341324,
    "lon":34.86009
  },
  {
    "code":39288,
    "name":"שד.וייצמן/סוקולוב",
    "town":"נתניה",
    "lat":32.341352,
    "lon":34.860305
  },
  {
    "code":39289,
    "name":"בית הבאר/נחום סוקולוב",
    "town":"נתניה",
    "lat":32.342055,
    "lon":34.861273
  },
  {
    "code":39291,
    "name":"הרב ריינס/עמק חפר",
    "town":"נתניה",
    "lat":32.336476,
    "lon":34.865621
  },
  {
    "code":39292,
    "name":"גולומב/טרומפלדור",
    "town":"נתניה",
    "lat":32.341185,
    "lon":34.863343
  },
  {
    "code":39293,
    "name":"שרת/אליהו גולומב",
    "town":"נתניה",
    "lat":32.339754,
    "lon":34.864141
  },
  {
    "code":39294,
    "name":"נחום סוקולוב/פייר ז'ילבר",
    "town":"נתניה",
    "lat":32.341644,
    "lon":34.86499
  },
  {
    "code":39295,
    "name":"נחום סוקולוב/פייר ז'ילבר",
    "town":"נתניה",
    "lat":32.341409,
    "lon":34.86566
  },
  {
    "code":39296,
    "name":"בית חולים לניאדו",
    "town":"נתניה",
    "lat":32.346219,
    "lon":34.857721
  },
  {
    "code":39297,
    "name":"הגדוד העברי/דברי חיים",
    "town":"נתניה",
    "lat":32.34798,
    "lon":34.857421
  },
  {
    "code":39298,
    "name":"אח''י דקר/דברי חיים",
    "town":"נתניה",
    "lat":32.34778,
    "lon":34.857511
  },
  {
    "code":39299,
    "name":"הרב חי טייב/הרב מיימון",
    "town":"נתניה",
    "lat":32.346329,
    "lon":34.857925
  },
  {
    "code":39300,
    "name":"הרב מיימון/מוריה",
    "town":"נתניה",
    "lat":32.345678,
    "lon":34.860878
  },
  {
    "code":39301,
    "name":"הרב מיימון/מוריה",
    "town":"נתניה",
    "lat":32.345791,
    "lon":34.860876
  },
  {
    "code":39302,
    "name":"הגפן\\הגדוד העבר",
    "town":"נתניה",
    "lat":32.34795,
    "lon":34.861068
  },
  {
    "code":39303,
    "name":"הגפן\\החרוב",
    "town":"נתניה",
    "lat":32.348061,
    "lon":34.861193
  },
  {
    "code":39304,
    "name":"הגפן/שד. עין התכלת",
    "town":"נתניה",
    "lat":32.349888,
    "lon":34.861408
  },
  {
    "code":39305,
    "name":"הגפן/שד. עין התכלת",
    "town":"נתניה",
    "lat":32.34978,
    "lon":34.861495
  },
  {
    "code":39306,
    "name":"קמיל הויסמנס/רבי עקיבא",
    "town":"נתניה",
    "lat":32.342521,
    "lon":34.862124
  },
  {
    "code":39307,
    "name":"בלפור/קמיל הויסמנס",
    "town":"נתניה",
    "lat":32.344226,
    "lon":34.862386
  },
  {
    "code":39308,
    "name":"בלפור/קמיל הויסמנס",
    "town":"נתניה",
    "lat":32.34448,
    "lon":34.862313
  },
  {
    "code":39310,
    "name":"הגפן/השקד",
    "town":"נתניה",
    "lat":32.351848,
    "lon":34.862522
  },
  {
    "code":39311,
    "name":"הגפן/השקד",
    "town":"נתניה",
    "lat":32.351923,
    "lon":34.862615
  },
  {
    "code":39314,
    "name":"צומת תל יצחק",
    "town":"בית יהושע",
    "lat":32.255554,
    "lon":34.872569
  },
  {
    "code":39316,
    "name":"'כפר נטר א",
    "town":"כפר נטר",
    "lat":32.268398,
    "lon":34.865593
  },
  {
    "code":39317,
    "name":"מרפאה",
    "town":"כפר נטר",
    "lat":32.270436,
    "lon":34.869688
  },
  {
    "code":39318,
    "name":"ההדרים/החרוב",
    "town":"כפר נטר",
    "lat":32.273119,
    "lon":34.873461
  },
  {
    "code":39319,
    "name":"ההדרים/סמטת החרוב",
    "town":"כפר נטר",
    "lat":32.276146,
    "lon":34.874754
  },
  {
    "code":39320,
    "name":"ההדרים/עממי",
    "town":"אבן יהודה",
    "lat":32.25808,
    "lon":34.888329
  },
  {
    "code":39323,
    "name":"השומרון/ותיקים",
    "town":"אבן יהודה",
    "lat":32.263416,
    "lon":34.88801
  },
  {
    "code":39324,
    "name":"השומרון/ותיקים",
    "town":"אבן יהודה",
    "lat":32.263559,
    "lon":34.887886
  },
  {
    "code":39325,
    "name":"ההדרים/הלוחמים",
    "town":"אבן יהודה",
    "lat":32.260575,
    "lon":34.889148
  },
  {
    "code":39326,
    "name":"ההדרים/הלוחמים",
    "town":"אבן יהודה",
    "lat":32.261049,
    "lon":34.889421
  },
  {
    "code":39327,
    "name":"המתמיד/הנוטע",
    "town":"אבן יהודה",
    "lat":32.267119,
    "lon":34.887191
  },
  {
    "code":39328,
    "name":"הנוטע/רקפות",
    "town":"אבן יהודה",
    "lat":32.267148,
    "lon":34.887038
  },
  {
    "code":39329,
    "name":"המייסדים/צבר",
    "town":"אבן יהודה",
    "lat":32.26981,
    "lon":34.885011
  },
  {
    "code":39330,
    "name":"מועצה מקומית",
    "town":"אבן יהודה",
    "lat":32.269774,
    "lon":34.888829
  },
  {
    "code":39331,
    "name":"המייסדים/העצמאות",
    "town":"אבן יהודה",
    "lat":32.269698,
    "lon":34.885312
  },
  {
    "code":39332,
    "name":"העצמאות/נרקיסים",
    "town":"אבן יהודה",
    "lat":32.274348,
    "lon":34.88711
  },
  {
    "code":39333,
    "name":"העצמאות/נרקיסים",
    "town":"אבן יהודה",
    "lat":32.274281,
    "lon":34.88719
  },
  {
    "code":39334,
    "name":"כביש 4/השומרון",
    "town":"אבן יהודה",
    "lat":32.261715,
    "lon":34.892396
  },
  {
    "code":39337,
    "name":"כביש 4/תל צור",
    "town":"אבן יהודה",
    "lat":32.275284,
    "lon":34.895064
  },
  {
    "code":39339,
    "name":"כפר נטר הצעירה",
    "town":"כפר נטר",
    "lat":32.281334,
    "lon":34.87289
  },
  {
    "code":39340,
    "name":"העצמאות/רימון",
    "town":"אבן יהודה",
    "lat":32.282373,
    "lon":34.891785
  },
  {
    "code":39341,
    "name":"כפר נטר הצעירה",
    "town":"כפר נטר",
    "lat":32.281741,
    "lon":34.872608
  },
  {
    "code":39342,
    "name":"ההדרים/השלום",
    "town":"כפר נטר",
    "lat":32.278974,
    "lon":34.875266
  },
  {
    "code":39343,
    "name":"האלון/ההדרים",
    "town":"כפר נטר",
    "lat":32.281089,
    "lon":34.875041
  },
  {
    "code":39345,
    "name":"האלון/ההדרים",
    "town":"כפר נטר",
    "lat":32.281048,
    "lon":34.876023
  },
  {
    "code":39346,
    "name":"פארק הבנים/הבנים",
    "town":"אבן יהודה",
    "lat":32.281798,
    "lon":34.880618
  },
  {
    "code":39347,
    "name":"גן הבנים/הבנים",
    "town":"אבן יהודה",
    "lat":32.282122,
    "lon":34.880923
  },
  {
    "code":39348,
    "name":"האורזים\\יוסף",
    "town":"נתניה",
    "lat":32.29696,
    "lon":34.869406
  },
  {
    "code":39349,
    "name":"האורזים/ליבר זאב",
    "town":"נתניה",
    "lat":32.300746,
    "lon":34.869552
  },
  {
    "code":39350,
    "name":"דרך דגניה/הרב שלום איפרגן",
    "town":"נתניה",
    "lat":32.29725,
    "lon":34.873239
  },
  {
    "code":39351,
    "name":"דרך דגניה/ליבר זאב",
    "town":"נתניה",
    "lat":32.299918,
    "lon":34.873394
  },
  {
    "code":39352,
    "name":"ד''ר יהודה פרח/האורזים",
    "town":"נתניה",
    "lat":32.303167,
    "lon":34.869651
  },
  {
    "code":39353,
    "name":"האורזים/פרופסור יוסף קלאוזנר",
    "town":"נתניה",
    "lat":32.306764,
    "lon":34.869571
  },
  {
    "code":39355,
    "name":"שפיגלמן/הגולן",
    "town":"נתניה",
    "lat":32.307825,
    "lon":34.872884
  },
  {
    "code":39356,
    "name":"בית עלמין",
    "town":"נתניה",
    "lat":32.298681,
    "lon":34.881396
  },
  {
    "code":39357,
    "name":"דגניה\\קלויזנר",
    "town":"נתניה",
    "lat":32.306429,
    "lon":34.874354
  },
  {
    "code":39358,
    "name":"דרך דגניה/פרופסור יוסף קלאוזנר",
    "town":"נתניה",
    "lat":32.307437,
    "lon":34.874792
  },
  {
    "code":39360,
    "name":"מרכז דוד/דרך דגניה",
    "town":"נתניה",
    "lat":32.308448,
    "lon":34.874746
  },
  {
    "code":39361,
    "name":"חורשת הסרג''נטים/האוניברסיטה",
    "town":"נתניה",
    "lat":32.306789,
    "lon":34.876866
  },
  {
    "code":39362,
    "name":"הרטום/רות המואביה",
    "town":"נתניה",
    "lat":32.308907,
    "lon":34.876499
  },
  {
    "code":39363,
    "name":"אסתר המלכה/החינוך העברי",
    "town":"נתניה",
    "lat":32.309244,
    "lon":34.877852
  },
  {
    "code":39364,
    "name":"מכללת נתניה/החינוך העברי",
    "town":"נתניה",
    "lat":32.306937,
    "lon":34.879312
  },
  {
    "code":39365,
    "name":"דרך הפארק/האוניברסיטה",
    "town":"נתניה",
    "lat":32.306208,
    "lon":34.880624
  },
  {
    "code":39366,
    "name":"ההשכלה/האוניברסיטה",
    "town":"נתניה",
    "lat":32.307586,
    "lon":34.881007
  },
  {
    "code":39367,
    "name":"ההשכלה/האוניברסיטה",
    "town":"נתניה",
    "lat":32.30755,
    "lon":34.88077
  },
  {
    "code":39368,
    "name":"ההשכלה/הרב יהודה אונטרמן",
    "town":"נתניה",
    "lat":32.30888,
    "lon":34.881222
  },
  {
    "code":39369,
    "name":"ההשכלה/הרב יהודה אונטרמן",
    "town":"נתניה",
    "lat":32.309305,
    "lon":34.881158
  },
  {
    "code":39370,
    "name":"הבנים/המחתרת",
    "town":"אבן יהודה",
    "lat":32.280109,
    "lon":34.884948
  },
  {
    "code":39371,
    "name":"הבנים/מרבד הקסמים",
    "town":"אבן יהודה",
    "lat":32.280217,
    "lon":34.884985
  },
  {
    "code":39372,
    "name":"הבנים/סמטת הורדים",
    "town":"אבן יהודה",
    "lat":32.278277,
    "lon":34.888529
  },
  {
    "code":39373,
    "name":"הבנים/סמטת הורדים",
    "town":"אבן יהודה",
    "lat":32.278373,
    "lon":34.888535
  },
  {
    "code":39374,
    "name":"צומת הדסים",
    "town":"אבן יהודה",
    "lat":32.28275,
    "lon":34.896438
  },
  {
    "code":39375,
    "name":"צומת הדסים",
    "town":"קדימה צורן",
    "lat":32.283195,
    "lon":34.897286
  },
  {
    "code":39376,
    "name":"הברבור/הזמיר",
    "town":"נתניה",
    "lat":32.30399,
    "lon":34.882232
  },
  {
    "code":39377,
    "name":"הזמיר/השחף",
    "town":"נתניה",
    "lat":32.306077,
    "lon":34.882851
  },
  {
    "code":39378,
    "name":"הזמיר/הנשר",
    "town":"נתניה",
    "lat":32.306826,
    "lon":34.882423
  },
  {
    "code":39379,
    "name":"דרך הלורד\\אבני",
    "town":"תל מונד",
    "lat":32.248346,
    "lon":34.910543
  },
  {
    "code":39380,
    "name":"הורדים/יונק הדבש",
    "town":"קדימה צורן",
    "lat":32.267569,
    "lon":34.913161
  },
  {
    "code":39381,
    "name":"הארז/השיזף",
    "town":"קדימה צורן",
    "lat":32.26673,
    "lon":34.913567
  },
  {
    "code":39382,
    "name":"גורדון/כצנלסון",
    "town":"קדימה צורן",
    "lat":32.272355,
    "lon":34.9105
  },
  {
    "code":39383,
    "name":"יוספטל / מימון",
    "town":"קדימה צורן",
    "lat":32.274709,
    "lon":34.907678
  },
  {
    "code":39384,
    "name":"יאנוש קורצ'ק/יוספטל",
    "town":"קדימה צורן",
    "lat":32.275956,
    "lon":34.908214
  },
  {
    "code":39385,
    "name":"גורדון/רוזנבך",
    "town":"קדימה צורן",
    "lat":32.273226,
    "lon":34.909808
  },
  {
    "code":39386,
    "name":"גורדון/ברנר",
    "town":"קדימה צורן",
    "lat":32.273996,
    "lon":34.909588
  },
  {
    "code":39387,
    "name":"גורדון/יאנוש קורצ'אק",
    "town":"קדימה צורן",
    "lat":32.275771,
    "lon":34.909654
  },
  {
    "code":39388,
    "name":"שד. יצחק בן צבי/יאנוש קורצ'אק",
    "town":"קדימה צורן",
    "lat":32.27571,
    "lon":34.910695
  },
  {
    "code":39389,
    "name":"ז'בוטינסקי/ההסתדרות",
    "town":"קדימה צורן",
    "lat":32.268783,
    "lon":34.912335
  },
  {
    "code":39390,
    "name":"אח''י דקר/ההסתדרות",
    "town":"קדימה צורן",
    "lat":32.26999,
    "lon":34.912352
  },
  {
    "code":39391,
    "name":"האלון/ההסתדרות",
    "town":"קדימה צורן",
    "lat":32.270195,
    "lon":34.912544
  },
  {
    "code":39392,
    "name":"שבזי/שד. יצחק בן צבי",
    "town":"קדימה צורן",
    "lat":32.272628,
    "lon":34.911703
  },
  {
    "code":39393,
    "name":"אח''י דקר/העורב",
    "town":"קדימה צורן",
    "lat":32.269224,
    "lon":34.913502
  },
  {
    "code":39394,
    "name":"מ''ג/ההסתדרות",
    "town":"קדימה צורן",
    "lat":32.271477,
    "lon":34.913327
  },
  {
    "code":39395,
    "name":"מ''ג/אלי כהן",
    "town":"קדימה צורן",
    "lat":32.271387,
    "lon":34.914331
  },
  {
    "code":39396,
    "name":"שבזי/סעדיה אבני",
    "town":"קדימה צורן",
    "lat":32.273004,
    "lon":34.913138
  },
  {
    "code":39397,
    "name":"שבזי/בר יהודה",
    "town":"קדימה צורן",
    "lat":32.27333,
    "lon":34.913557
  },
  {
    "code":39398,
    "name":"הדקל/הכלנית",
    "town":"תל מונד",
    "lat":32.248527,
    "lon":34.915913
  },
  {
    "code":39399,
    "name":"הדקל/הרקפת",
    "town":"תל מונד",
    "lat":32.249961,
    "lon":34.918202
  },
  {
    "code":39400,
    "name":"הדקל/הנרקיס",
    "town":"תל מונד",
    "lat":32.253024,
    "lon":34.9182
  },
  {
    "code":39401,
    "name":"הדקל/השקד",
    "town":"תל מונד",
    "lat":32.256622,
    "lon":34.920333
  },
  {
    "code":39402,
    "name":"הארז/הציפורים",
    "town":"קדימה צורן",
    "lat":32.266481,
    "lon":34.915282
  },
  {
    "code":39403,
    "name":"הארז/השלדג",
    "town":"קדימה צורן",
    "lat":32.266368,
    "lon":34.916021
  },
  {
    "code":39404,
    "name":"הארז/השיקמים",
    "town":"קדימה צורן",
    "lat":32.266812,
    "lon":34.917499
  },
  {
    "code":39405,
    "name":"הארז/השיקמים",
    "town":"קדימה צורן",
    "lat":32.266815,
    "lon":34.917658
  },
  {
    "code":39406,
    "name":"הדקל/התאנה",
    "town":"תל מונד",
    "lat":32.260507,
    "lon":34.922334
  },
  {
    "code":39407,
    "name":"כביש 562/האנפה",
    "town":"קדימה צורן",
    "lat":32.266443,
    "lon":34.919005
  },
  {
    "code":39408,
    "name":"היובל/התפוז",
    "town":"קדימה צורן",
    "lat":32.271438,
    "lon":34.916988
  },
  {
    "code":39409,
    "name":"מסגריה/מ''ג",
    "town":"קדימה צורן",
    "lat":32.271495,
    "lon":34.917259
  },
  {
    "code":39410,
    "name":"שבזי/אלי כהן",
    "town":"קדימה צורן",
    "lat":32.27339,
    "lon":34.915612
  },
  {
    "code":39411,
    "name":"מ''ג/שבזי",
    "town":"קדימה צורן",
    "lat":32.273464,
    "lon":34.916934
  },
  {
    "code":39412,
    "name":"אזור תעשיה קדימה",
    "town":"קדימה צורן",
    "lat":32.271609,
    "lon":34.922392
  },
  {
    "code":39413,
    "name":"562/שדרות הדקלים",
    "town":"קדימה צורן",
    "lat":32.27276,
    "lon":34.922763
  },
  {
    "code":39414,
    "name":"צומת עין ורד",
    "town":"עין ורד",
    "lat":32.261016,
    "lon":34.929346
  },
  {
    "code":39415,
    "name":"הרצל/האירוסים",
    "town":"קדימה צורן",
    "lat":32.283311,
    "lon":34.904705
  },
  {
    "code":39416,
    "name":"הרצל/תדהר",
    "town":"קדימה צורן",
    "lat":32.283075,
    "lon":34.905725
  },
  {
    "code":39417,
    "name":"הרצל/מורדי הגטאות",
    "town":"קדימה צורן",
    "lat":32.282382,
    "lon":34.908295
  },
  {
    "code":39418,
    "name":"הרצל/מורדי הגטאות",
    "town":"קדימה צורן",
    "lat":32.282577,
    "lon":34.907928
  },
  {
    "code":39419,
    "name":"שד. יצחק בן צבי/הנרייטה סולד",
    "town":"קדימה צורן",
    "lat":32.277258,
    "lon":34.911265
  },
  {
    "code":39420,
    "name":"שד. יצחק בן צבי/רימון",
    "town":"קדימה צורן",
    "lat":32.27808,
    "lon":34.911085
  },
  {
    "code":39421,
    "name":"בן צבי\\אחד העם",
    "town":"קדימה צורן",
    "lat":32.280702,
    "lon":34.91129
  },
  {
    "code":39422,
    "name":"מועצה",
    "town":"קדימה צורן",
    "lat":32.280963,
    "lon":34.911613
  },
  {
    "code":39423,
    "name":"מרכז מסחרי/האר''י",
    "town":"נתניה",
    "lat":32.312108,
    "lon":34.870772
  },
  {
    "code":39424,
    "name":"שפיגלמן/הרטום",
    "town":"נתניה",
    "lat":32.309522,
    "lon":34.87317
  },
  {
    "code":39425,
    "name":"בי''ס אורט",
    "town":"נתניה",
    "lat":32.316805,
    "lon":34.873794
  },
  {
    "code":39426,
    "name":"תחנת רכבת",
    "town":"נתניה",
    "lat":32.320038,
    "lon":34.868834
  },
  {
    "code":39427,
    "name":"האורזים/העמל",
    "town":"נתניה",
    "lat":32.319428,
    "lon":34.871759
  },
  {
    "code":39428,
    "name":"קניון הדרים",
    "town":"נתניה",
    "lat":32.322687,
    "lon":34.872013
  },
  {
    "code":39429,
    "name":"דרך דגניה/הרב יהודה אונטרמן",
    "town":"נתניה",
    "lat":32.31059,
    "lon":34.875623
  },
  {
    "code":39430,
    "name":"כיכר אורט",
    "town":"נתניה",
    "lat":32.312364,
    "lon":34.871873
  },
  {
    "code":39431,
    "name":"אסתר המלכה/הרב יהודה אונטרמן",
    "town":"נתניה",
    "lat":32.310433,
    "lon":34.877689
  },
  {
    "code":39432,
    "name":"דוד פנקס/הרכב",
    "town":"נתניה",
    "lat":32.315379,
    "lon":34.87417
  },
  {
    "code":39433,
    "name":"הנגר/הפלדה",
    "town":"נתניה",
    "lat":32.316178,
    "lon":34.877468
  },
  {
    "code":39434,
    "name":"בית חרושת טריוול",
    "town":"נתניה",
    "lat":32.315536,
    "lon":34.877502
  },
  {
    "code":39435,
    "name":"ארלוזורוב/השומר",
    "town":"נתניה",
    "lat":32.312112,
    "lon":34.879438
  },
  {
    "code":39436,
    "name":"הרב צירלסון/השומר",
    "town":"נתניה",
    "lat":32.310401,
    "lon":34.882047
  },
  {
    "code":39437,
    "name":"ההשכלה/השומר",
    "town":"נתניה",
    "lat":32.310632,
    "lon":34.881197
  },
  {
    "code":39438,
    "name":"ארלוזורוב/הלפרין",
    "town":"נתניה",
    "lat":32.314616,
    "lon":34.88097
  },
  {
    "code":39439,
    "name":"דוד פנקס/צבי שכטרמן",
    "town":"נתניה",
    "lat":32.319902,
    "lon":34.874138
  },
  {
    "code":39440,
    "name":"דוד פנקס/צבי שכטרמן",
    "town":"נתניה",
    "lat":32.320167,
    "lon":34.874932
  },
  {
    "code":39441,
    "name":"האורג/הפלדה",
    "town":"נתניה",
    "lat":32.318671,
    "lon":34.877746
  },
  {
    "code":39443,
    "name":"פנקס/הקדר",
    "town":"נתניה",
    "lat":32.323412,
    "lon":34.874522
  },
  {
    "code":39444,
    "name":"צבי שכטרמן/הפלדה",
    "town":"נתניה",
    "lat":32.32012,
    "lon":34.876684
  },
  {
    "code":39445,
    "name":"צבי שכטרמן/הפלדה",
    "town":"נתניה",
    "lat":32.319905,
    "lon":34.878281
  },
  {
    "code":39446,
    "name":"דרך דגניה/צבי שכטרמן",
    "town":"נתניה",
    "lat":32.319641,
    "lon":34.881705
  },
  {
    "code":39447,
    "name":"דרך דגניה/צבי שכטרמן",
    "town":"נתניה",
    "lat":32.319728,
    "lon":34.881755
  },
  {
    "code":39449,
    "name":"משה גליקסון/שמעון פרוג",
    "town":"נתניה",
    "lat":32.330186,
    "lon":34.868109
  },
  {
    "code":39450,
    "name":"דוד פרישמן/משה גליקסון",
    "town":"נתניה",
    "lat":32.331295,
    "lon":34.86846
  },
  {
    "code":39452,
    "name":"אלקלעי/ברק בן אבינועם",
    "town":"נתניה",
    "lat":32.333016,
    "lon":34.870811
  },
  {
    "code":39453,
    "name":"עמק חפר/אליהו גולומב",
    "town":"נתניה",
    "lat":32.337811,
    "lon":34.866372
  },
  {
    "code":39454,
    "name":"דב הוז\\ריינס",
    "town":"נתניה",
    "lat":32.336804,
    "lon":34.866938
  },
  {
    "code":39455,
    "name":"נחום סוקולוב/עמק חפר",
    "town":"נתניה",
    "lat":32.340773,
    "lon":34.867708
  },
  {
    "code":39456,
    "name":"עמק חפר מזאה",
    "town":"נתניה",
    "lat":32.342218,
    "lon":34.868233
  },
  {
    "code":39457,
    "name":"פרופסור אלברט איינשטיין/צ.פ. חיות",
    "town":"נתניה",
    "lat":32.340681,
    "lon":34.869417
  },
  {
    "code":39458,
    "name":"פרופסור אלברט איינשטיין/מרטין בובר",
    "town":"נתניה",
    "lat":32.341113,
    "lon":34.868432
  },
  {
    "code":39459,
    "name":"דב הוז\\שפינוזה",
    "town":"נתניה",
    "lat":32.336087,
    "lon":34.870035
  },
  {
    "code":39460,
    "name":"אלקלעי/יפתח הגלעדי",
    "town":"נתניה",
    "lat":32.334785,
    "lon":34.871508
  },
  {
    "code":39461,
    "name":"פרופסור אלברט איינשטיין/פרופסור שור",
    "town":"נתניה",
    "lat":32.340336,
    "lon":34.870705
  },
  {
    "code":39462,
    "name":"פרופסור אלברט איינשטיין/פרופסור שור",
    "town":"נתניה",
    "lat":32.34052,
    "lon":34.870742
  },
  {
    "code":39463,
    "name":"בית ספר ש''י עגנון/שמעון בר יוח",
    "town":"נתניה",
    "lat":32.341382,
    "lon":34.871966
  },
  {
    "code":39464,
    "name":"יוסף שפרינצק/מיכאל הלפרין",
    "town":"נתניה",
    "lat":32.313726,
    "lon":34.883756
  },
  {
    "code":39465,
    "name":"הרב ז. גולד/הרב צירלסון",
    "town":"נתניה",
    "lat":32.309741,
    "lon":34.884436
  },
  {
    "code":39466,
    "name":"הרב גד מכלוף/שמואל לנדאו",
    "town":"נתניה",
    "lat":32.311594,
    "lon":34.884797
  },
  {
    "code":39467,
    "name":"יוסף שפרינצק/הרב הגר",
    "town":"נתניה",
    "lat":32.313727,
    "lon":34.883995
  },
  {
    "code":39468,
    "name":"דגניה\\קפלן",
    "town":"נתניה",
    "lat":32.317779,
    "lon":34.882235
  },
  {
    "code":39469,
    "name":"יוסף שפרינצק/יוסף ויתקין",
    "town":"נתניה",
    "lat":32.315404,
    "lon":34.886145
  },
  {
    "code":39470,
    "name":"יוסף שפרינצק/עובדיה אברהם הכהן",
    "town":"נתניה",
    "lat":32.315808,
    "lon":34.886282
  },
  {
    "code":39471,
    "name":"שפרינצק/שרה מלכין",
    "town":"נתניה",
    "lat":32.31742,
    "lon":34.887002
  },
  {
    "code":39472,
    "name":"יוסף שפרינצק/הרב מנחם זמבה",
    "town":"נתניה",
    "lat":32.317675,
    "lon":34.887209
  },
  {
    "code":39473,
    "name":"אליעזר קפלן/שרה מלכין",
    "town":"נתניה",
    "lat":32.320042,
    "lon":34.884686
  },
  {
    "code":39475,
    "name":"אליעזר קפלן/יוסף שפרינצק",
    "town":"נתניה",
    "lat":32.319832,
    "lon":34.887322
  },
  {
    "code":39476,
    "name":"יוסף שפרינצק/משה מונטיפיורי",
    "town":"נתניה",
    "lat":32.319218,
    "lon":34.88749
  },
  {
    "code":39477,
    "name":"עמק חפר\\מזאה",
    "town":"נתניה",
    "lat":32.342363,
    "lon":34.86846
  },
  {
    "code":39478,
    "name":"עמק חפר/מסריק",
    "town":"נתניה",
    "lat":32.344891,
    "lon":34.869914
  },
  {
    "code":39479,
    "name":"הגדוד העברי/עמק חפר",
    "town":"נתניה",
    "lat":32.345179,
    "lon":34.869936
  },
  {
    "code":39480,
    "name":"מזכירות",
    "town":"אביחיל",
    "lat":32.3473,
    "lon":34.869256
  },
  {
    "code":39481,
    "name":"מרכז",
    "town":"אביחיל",
    "lat":32.348785,
    "lon":34.869954
  },
  {
    "code":39482,
    "name":"מרפאה",
    "town":"אביחיל",
    "lat":32.350628,
    "lon":34.870888
  },
  {
    "code":39483,
    "name":"מרפאה",
    "town":"אביחיל",
    "lat":32.350595,
    "lon":34.871017
  },
  {
    "code":39484,
    "name":"הגדוד העברי/השומר",
    "town":"אביחיל",
    "lat":32.352224,
    "lon":34.873041
  },
  {
    "code":39485,
    "name":"הגדוד העברי/השומר",
    "town":"אביחיל",
    "lat":32.352215,
    "lon":34.87316
  },
  {
    "code":39486,
    "name":"הגדוד העברי/הבנים",
    "town":"אביחיל",
    "lat":32.355565,
    "lon":34.873159
  },
  {
    "code":39487,
    "name":"צרכניה",
    "town":"עין ורד",
    "lat":32.265625,
    "lon":34.93293
  },
  {
    "code":39488,
    "name":"קופת חולים",
    "town":"עין ורד",
    "lat":32.267751,
    "lon":34.935106
  },
  {
    "code":39489,
    "name":"ברבור/עגור",
    "town":"עין שריד",
    "lat":32.272156,
    "lon":34.935163
  },
  {
    "code":39490,
    "name":"מזכירות",
    "town":"עין שריד",
    "lat":32.275119,
    "lon":34.935271
  },
  {
    "code":39492,
    "name":"כביש 562/האילנות",
    "town":"קדימה צורן",
    "lat":32.287704,
    "lon":34.937934
  },
  {
    "code":39493,
    "name":"ההדרים צורן/השיקמה צורן",
    "town":"קדימה צורן",
    "lat":32.288767,
    "lon":34.938915
  },
  {
    "code":39494,
    "name":"ההדרים צורן/האילן צורן",
    "town":"קדימה צורן",
    "lat":32.289149,
    "lon":34.940214
  },
  {
    "code":39495,
    "name":"דרך לב השרון/הגפן",
    "town":"קדימה צורן",
    "lat":32.287616,
    "lon":34.943406
  },
  {
    "code":39496,
    "name":"האילנות/הדולב",
    "town":"קדימה צורן",
    "lat":32.286481,
    "lon":34.945477
  },
  {
    "code":39497,
    "name":"ההדרים צורן/הגפן צורן",
    "town":"קדימה צורן",
    "lat":32.289157,
    "lon":34.944557
  },
  {
    "code":39498,
    "name":"דרך לב השרון/הזית",
    "town":"קדימה צורן",
    "lat":32.287445,
    "lon":34.948899
  },
  {
    "code":39499,
    "name":"ההדרים צורן/ההדס צורן",
    "town":"קדימה צורן",
    "lat":32.289141,
    "lon":34.947722
  },
  {
    "code":39500,
    "name":"ההדרים/החרוב",
    "town":"קדימה צורן",
    "lat":32.289036,
    "lon":34.950515
  },
  {
    "code":39501,
    "name":"חבצלת החוף/אירוס הארגמן",
    "town":"נתניה",
    "lat":32.284325,
    "lon":34.845874
  },
  {
    "code":39502,
    "name":"מרכז",
    "town":"אביחיל",
    "lat":32.348934,
    "lon":34.869898
  },
  {
    "code":39503,
    "name":"מלון כרמל/שדרות בן גוריון",
    "town":"נתניה",
    "lat":32.3161,
    "lon":34.846248
  },
  {
    "code":39504,
    "name":"ד''ר סטופ/הנרייטה סולד",
    "town":"נתניה",
    "lat":32.29665,
    "lon":34.851163
  },
  {
    "code":39505,
    "name":"מוצקין/שמחה ארליך",
    "town":"נתניה",
    "lat":32.298533,
    "lon":34.849575
  },
  {
    "code":39506,
    "name":"לוי אשכול/שמחה ארליך",
    "town":"נתניה",
    "lat":32.299538,
    "lon":34.849183
  },
  {
    "code":39507,
    "name":"בן עמי\\קניג",
    "town":"נתניה",
    "lat":32.3101,
    "lon":34.844852
  },
  {
    "code":39508,
    "name":"פתח תקווה/לילינבלום",
    "town":"נתניה",
    "lat":32.32474,
    "lon":34.86039
  },
  {
    "code":39509,
    "name":"המחשב/הצורן",
    "town":"נתניה",
    "lat":32.287413,
    "lon":34.86543
  },
  {
    "code":39510,
    "name":"אורט/הפלדה",
    "town":"נתניה",
    "lat":32.316573,
    "lon":34.877615
  },
  {
    "code":39511,
    "name":"האורג/הפלדה",
    "town":"נתניה",
    "lat":32.318663,
    "lon":34.877852
  },
  {
    "code":39512,
    "name":"בית ספר אורט/פנקס",
    "town":"נתניה",
    "lat":32.317146,
    "lon":34.874056
  },
  {
    "code":39513,
    "name":"דוד פנקס/צבי שכטרמן",
    "town":"נתניה",
    "lat":32.320682,
    "lon":34.874438
  },
  {
    "code":39514,
    "name":"הגביש/המחקר",
    "town":"נתניה",
    "lat":32.290791,
    "lon":34.864384
  },
  {
    "code":39515,
    "name":"לבון/גולדה מאיר",
    "town":"נתניה",
    "lat":32.278606,
    "lon":34.850959
  },
  {
    "code":39516,
    "name":"מרכז מסחרי/שדרות גיבורי ישראל",
    "town":"נתניה",
    "lat":32.273222,
    "lon":34.858075
  },
  {
    "code":39519,
    "name":"האילנות/הדולב",
    "town":"קדימה צורן",
    "lat":32.286174,
    "lon":34.945903
  },
  {
    "code":39520,
    "name":"האילנות/הזית",
    "town":"קדימה צורן",
    "lat":32.286178,
    "lon":34.948262
  },
  {
    "code":39521,
    "name":"דרך לב השרון/האילן",
    "town":"קדימה צורן",
    "lat":32.287605,
    "lon":34.939667
  },
  {
    "code":39522,
    "name":"תחנה מרכזית נתניה/הורדה",
    "town":"נתניה",
    "lat":32.327128,
    "lon":34.85839
  },
  {
    "code":39523,
    "name":"תחנה מרכזית",
    "town":"נתניה",
    "lat":32.32653,
    "lon":34.858863
  },
  {
    "code":39524,
    "name":"צומת נווה איתמר",
    "town":"נתניה",
    "lat":32.324395,
    "lon":34.874173
  },
  {
    "code":39525,
    "name":"קלאוזנר/דרך דגניה",
    "town":"נתניה",
    "lat":32.306967,
    "lon":34.875989
  },
  {
    "code":39526,
    "name":"שדרות הפארק/הזמיר",
    "town":"נתניה",
    "lat":32.305088,
    "lon":34.880694
  },
  {
    "code":39527,
    "name":"דרך דגניה/ליבר זאב",
    "town":"נתניה",
    "lat":32.300559,
    "lon":34.873804
  },
  {
    "code":39528,
    "name":"דרך דגניה/הרב שלום איפרגן",
    "town":"נתניה",
    "lat":32.297473,
    "lon":34.873547
  },
  {
    "code":39529,
    "name":"הרימון/השיקמה",
    "town":"נתניה",
    "lat":32.351953,
    "lon":34.865686
  },
  {
    "code":39531,
    "name":"מסעף שער אברהם",
    "town":"נחל שורק",
    "lat":31.761822,
    "lon":34.79128
  },
  {
    "code":39533,
    "name":"הנשר/הזמיר",
    "town":"נתניה",
    "lat":32.306688,
    "lon":34.881753
  },
  {
    "code":39534,
    "name":"האורזים/צבי שכטרמן",
    "town":"נתניה",
    "lat":32.320701,
    "lon":34.871809
  },
  {
    "code":39535,
    "name":"בית ספר ריגלר/חטיבת אלכסנדרוני",
    "town":"נתניה",
    "lat":32.301286,
    "lon":34.850066
  },
  {
    "code":39536,
    "name":"מחלף נשרים",
    "town":"מא גזר",
    "lat":31.902049,
    "lon":34.888258
  },
  {
    "code":39537,
    "name":"מסעף גן יבנה",
    "town":"גן יבנה",
    "lat":31.785013,
    "lon":34.674491
  },
  {
    "code":39538,
    "name":"דרך דגניה/הרב יהודה אונטרמן",
    "town":"נתניה",
    "lat":32.311257,
    "lon":34.875473
  },
  {
    "code":39539,
    "name":"האורזים/אורט",
    "town":"נתניה",
    "lat":32.316544,
    "lon":34.871612
  },
  {
    "code":39540,
    "name":"בני וו. רייך/אדר",
    "town":"לב השרון",
    "lat":32.295075,
    "lon":34.871643
  },
  {
    "code":39541,
    "name":"בני וו. רייך/אדר",
    "town":"לב השרון",
    "lat":32.294811,
    "lon":34.871106
  },
  {
    "code":39543,
    "name":"חשמונאים/רבין",
    "town":"מודיעין מכבים רעות",
    "lat":31.893196,
    "lon":35.000913
  },
  {
    "code":39544,
    "name":"מכללת הרמלין/הצורן",
    "town":"נתניה",
    "lat":32.291132,
    "lon":34.86485
  },
  {
    "code":39545,
    "name":"בית ספר ש''י עגנון/שמעון בר יוח",
    "town":"נתניה",
    "lat":32.341212,
    "lon":34.871789
  },
  {
    "code":39547,
    "name":"אלונים/דרך דגניה",
    "town":"נתניה",
    "lat":32.303214,
    "lon":34.874451
  },
  {
    "code":39551,
    "name":"הרב הרצוג/ד''ר אמיל זומרשטיין",
    "town":"נתניה",
    "lat":32.34224,
    "lon":34.85863
  },
  {
    "code":39553,
    "name":"שמואל הנציב/י.ח.ברנר",
    "town":"נתניה",
    "lat":32.334331,
    "lon":34.856702
  },
  {
    "code":39556,
    "name":"אלונים/הנופר",
    "town":"נתניה",
    "lat":32.302852,
    "lon":34.877189
  },
  {
    "code":39557,
    "name":"מודיעים/חיטה",
    "town":"שוהם",
    "lat":31.989532,
    "lon":34.943804
  },
  {
    "code":39558,
    "name":"כלנית/יסמין",
    "town":"בית דגן",
    "lat":31.996168,
    "lon":34.828471
  },
  {
    "code":39559,
    "name":"בני וו. רייך/האורזים",
    "town":"נתניה",
    "lat":32.294831,
    "lon":34.869082
  },
  {
    "code":39560,
    "name":"האורזים/יוסף",
    "town":"נתניה",
    "lat":32.298308,
    "lon":34.869225
  },
  {
    "code":39561,
    "name":"גשר השלום/הגביש",
    "town":"נתניה",
    "lat":32.286629,
    "lon":34.862025
  },
  {
    "code":39563,
    "name":"יוסף שפרינצק/אברהם מרק",
    "town":"נתניה",
    "lat":32.314634,
    "lon":34.88525
  },
  {
    "code":39566,
    "name":"הרימון/התמר",
    "town":"נתניה",
    "lat":32.352452,
    "lon":34.863983
  },
  {
    "code":39569,
    "name":"אנילביץ/שלמה המלך",
    "town":"ראשון לציון",
    "lat":31.980533,
    "lon":34.789306
  },
  {
    "code":39570,
    "name":"גיסין/משה סנה",
    "town":"פתח תקווה",
    "lat":32.097933,
    "lon":34.879686
  },
  {
    "code":39574,
    "name":"אלונים/הנופר",
    "town":"נתניה",
    "lat":32.302883,
    "lon":34.87701
  },
  {
    "code":39578,
    "name":"חניון שפירים",
    "town":"עמק לוד",
    "lat":32.00106,
    "lon":34.843829
  },
  {
    "code":39579,
    "name":"הגלעד/הרטום",
    "town":"נתניה",
    "lat":32.31043,
    "lon":34.872766
  },
  {
    "code":39581,
    "name":"גוש עציון/הציונות",
    "town":"גבעת שמואל",
    "lat":32.079141,
    "lon":34.845728
  },
  {
    "code":39582,
    "name":"בית תרבות",
    "town":"אומץ",
    "lat":32.369854,
    "lon":34.993231
  },
  {
    "code":39583,
    "name":"'גן יאשיה ד",
    "town":"גן יאשיה",
    "lat":32.349946,
    "lon":34.995665
  },
  {
    "code":39584,
    "name":"צומת חרב לאת",
    "town":"חרב לאת",
    "lat":32.401246,
    "lon":34.914846
  },
  {
    "code":39585,
    "name":"הראשונים/אודים",
    "town":"חיבת ציון",
    "lat":32.397574,
    "lon":34.91256
  },
  {
    "code":39586,
    "name":"הזיתים/הרימון",
    "town":"גבעת שמואל",
    "lat":32.081694,
    "lon":34.852108
  },
  {
    "code":39587,
    "name":"אליעזר קפלן/יוסף שפרינצק",
    "town":"נתניה",
    "lat":32.319289,
    "lon":34.887612
  },
  {
    "code":39588,
    "name":"ש''י עגנון/שדרות פנחס לבון",
    "town":"נתניה",
    "lat":32.279972,
    "lon":34.852212
  },
  {
    "code":39589,
    "name":"הרצוג/עובדיה מברטנורא",
    "town":"נתניה",
    "lat":32.342203,
    "lon":34.859563
  },
  {
    "code":39590,
    "name":"רבן יוחנן בן זכאי/שמעיה",
    "town":"אלעד",
    "lat":32.050985,
    "lon":34.948886
  },
  {
    "code":39591,
    "name":"גבעת חיים איחוד",
    "town":"גבעת חיים איחוד",
    "lat":32.396046,
    "lon":34.933494
  },
  {
    "code":39593,
    "name":"'חרב לאת ג",
    "town":"חרב לאת",
    "lat":32.400908,
    "lon":34.919227
  },
  {
    "code":39594,
    "name":"'מעפיל א",
    "town":"המעפיל",
    "lat":32.37777,
    "lon":34.984523
  },
  {
    "code":39596,
    "name":"צומת אליכין",
    "town":"עמק חפר",
    "lat":32.397341,
    "lon":34.925936
  },
  {
    "code":39597,
    "name":"הגפן/הרש''ש",
    "town":"אליכין",
    "lat":32.405792,
    "lon":34.924857
  },
  {
    "code":39598,
    "name":"הרש''ש/כנפי הנשרים",
    "town":"אליכין",
    "lat":32.405308,
    "lon":34.926834
  },
  {
    "code":39599,
    "name":"חבצלת השרון/שקד",
    "town":"אליכין",
    "lat":32.409239,
    "lon":34.930145
  },
  {
    "code":39600,
    "name":"הגפן/התמר",
    "town":"אליכין",
    "lat":32.406579,
    "lon":34.922061
  },
  {
    "code":39601,
    "name":"חבצלת השרון/היסמין",
    "town":"אליכין",
    "lat":32.410334,
    "lon":34.923957
  },
  {
    "code":39602,
    "name":"חבצלת השרון/כנפי הנשרים",
    "town":"אליכין",
    "lat":32.409683,
    "lon":34.928104
  },
  {
    "code":39603,
    "name":"הרש''ש/הסביון",
    "town":"אליכין",
    "lat":32.408402,
    "lon":34.931491
  },
  {
    "code":39604,
    "name":"הרש''ש/מרבד הקסמים",
    "town":"אליכין",
    "lat":32.405734,
    "lon":34.92978
  },
  {
    "code":39605,
    "name":"טייבה 6",
    "town":"טייבה",
    "lat":32.275997,
    "lon":35.005461
  },
  {
    "code":39606,
    "name":"מחלף שפיים",
    "town":"חוף השרון",
    "lat":32.215722,
    "lon":34.828025
  },
  {
    "code":39607,
    "name":"מסעף שפיים",
    "town":"חוף השרון",
    "lat":32.217079,
    "lon":34.828406
  },
  {
    "code":39608,
    "name":"שפיים",
    "town":"חוף השרון",
    "lat":32.219875,
    "lon":34.829067
  },
  {
    "code":39609,
    "name":"שפיים",
    "town":"חוף השרון",
    "lat":32.222275,
    "lon":34.829808
  },
  {
    "code":39611,
    "name":"דרך הארז/דרך ההדס",
    "town":"בורגתה",
    "lat":32.318284,
    "lon":34.964513
  },
  {
    "code":39612,
    "name":"דרך ההדס/סמטת הדקל",
    "town":"בורגתה",
    "lat":32.326844,
    "lon":34.962251
  },
  {
    "code":39614,
    "name":"הראשונים/החורב",
    "town":"חניאל",
    "lat":32.332558,
    "lon":34.951701
  },
  {
    "code":39615,
    "name":"הראשונים/סמטת הדקל",
    "town":"בורגתה",
    "lat":32.329159,
    "lon":34.956731
  },
  {
    "code":39616,
    "name":"דרך הארץ/סמטת הברוש",
    "town":"בורגתה",
    "lat":32.324213,
    "lon":34.964072
  },
  {
    "code":39617,
    "name":"החורב/הראשונים",
    "town":"חניאל",
    "lat":32.329279,
    "lon":34.947523
  },
  {
    "code":39618,
    "name":"הגפן/שד. הזיתים",
    "town":"שער אפרים",
    "lat":32.289251,
    "lon":34.998482
  },
  {
    "code":39619,
    "name":"מגרש כדורגל",
    "town":"כפר יעבץ",
    "lat":32.273159,
    "lon":34.966895
  },
  {
    "code":39621,
    "name":"מרכז חינוכי",
    "town":"עין החורש",
    "lat":32.388796,
    "lon":34.941917
  },
  {
    "code":39622,
    "name":"זמיר/עגור",
    "town":"עין שריד",
    "lat":32.274955,
    "lon":34.935015
  },
  {
    "code":39625,
    "name":"צומת שער אפרים",
    "town":"טייבה",
    "lat":32.279518,
    "lon":35.005273
  },
  {
    "code":39626,
    "name":"הזיתים/הרימון",
    "town":"גבעת שמואל",
    "lat":32.081544,
    "lon":34.852316
  },
  {
    "code":39627,
    "name":"שד. בן גוריון/זלמן שז''ר",
    "town":"נתניה",
    "lat":32.278525,
    "lon":34.849234
  },
  {
    "code":39628,
    "name":"תחנה מרכזית",
    "town":"פתח תקווה",
    "lat":32.094713,
    "lon":34.88624
  },
  {
    "code":39629,
    "name":"ביה''ח תל השומר-מנהלה",
    "town":"רמת גן",
    "lat":32.047825,
    "lon":34.845109
  },
  {
    "code":39631,
    "name":"הארז/כליל החורש",
    "town":"קדימה צורן",
    "lat":32.268783,
    "lon":34.918784
  },
  {
    "code":39634,
    "name":"דור אלון/נען מערב",
    "town":"מא גזר",
    "lat":31.881585,
    "lon":34.878528
  },
  {
    "code":39635,
    "name":"הרב הרצוג/שד. ניצה",
    "town":"נתניה",
    "lat":32.342456,
    "lon":34.853578
  },
  {
    "code":39637,
    "name":"עמק חפר/טרומפלדור",
    "town":"נתניה",
    "lat":32.340502,
    "lon":34.867379
  },
  {
    "code":39640,
    "name":"הארז/השלדג",
    "town":"קדימה צורן",
    "lat":32.266463,
    "lon":34.915913
  },
  {
    "code":39642,
    "name":"בי''ח תל השומר/בית יולדות",
    "town":"רמת גן",
    "lat":32.04946,
    "lon":34.842887
  },
  {
    "code":39645,
    "name":"שד. בן גוריון/שד. פנחס לבון",
    "town":"נתניה",
    "lat":32.278554,
    "lon":34.850476
  },
  {
    "code":39647,
    "name":"העצמאות/הפטל",
    "town":"אבן יהודה",
    "lat":32.278646,
    "lon":34.889572
  },
  {
    "code":39648,
    "name":"אזור תעשיה אבן יהודה",
    "town":"אבן יהודה",
    "lat":32.281111,
    "lon":34.891106
  },
  {
    "code":39650,
    "name":"בית ספר רמב''ם/הרב שלום שבזי",
    "town":"ראש העין",
    "lat":32.090317,
    "lon":34.948804
  },
  {
    "code":39651,
    "name":"הורדים/התפוח",
    "town":"קדימה צורן",
    "lat":32.270777,
    "lon":34.918803
  },
  {
    "code":39653,
    "name":"הארז/כליל החורש",
    "town":"קדימה צורן",
    "lat":32.26881,
    "lon":34.918887
  },
  {
    "code":39654,
    "name":"המייסדים/רמת בן גוריון",
    "town":"אבן יהודה",
    "lat":32.270275,
    "lon":34.883934
  },
  {
    "code":39655,
    "name":"הורדים/השקד",
    "town":"קדימה צורן",
    "lat":32.270946,
    "lon":34.918762
  },
  {
    "code":39656,
    "name":"שד. הדקלים/הורדים",
    "town":"קדימה צורן",
    "lat":32.273278,
    "lon":34.920039
  },
  {
    "code":39657,
    "name":"בלפור/קמיל הויסמנס",
    "town":"נתניה",
    "lat":32.344313,
    "lon":34.86229
  },
  {
    "code":39658,
    "name":"עובדיה בן שלום/שלום שבזי",
    "town":"נתניה",
    "lat":32.314736,
    "lon":34.85673
  },
  {
    "code":39659,
    "name":"פתח תקווה/ד''ר מרדכי שריבר",
    "town":"נתניה",
    "lat":32.323248,
    "lon":34.860111
  },
  {
    "code":39660,
    "name":"פארק סיבל/יציאה מכביש 5",
    "town":"ראש העין",
    "lat":32.106222,
    "lon":34.961327
  },
  {
    "code":39661,
    "name":"מחלף ראש העין מזרח",
    "town":"ראש העין",
    "lat":32.107129,
    "lon":34.961846
  },
  {
    "code":39662,
    "name":"מחלף ראש העין מזרח",
    "town":"ראש העין",
    "lat":32.107587,
    "lon":34.962059
  },
  {
    "code":39666,
    "name":"ז'בוטינסקי/קיבוץ גלויות",
    "town":"ראש העין",
    "lat":32.090674,
    "lon":34.970819
  },
  {
    "code":39669,
    "name":"נחל רבה/קיבוץ גלויות",
    "town":"ראש העין",
    "lat":32.100293,
    "lon":34.969423
  },
  {
    "code":39670,
    "name":"קיבוץ גלויות/דרך בגין",
    "town":"ראש העין",
    "lat":32.096928,
    "lon":34.970562
  },
  {
    "code":39672,
    "name":"צרכניה",
    "town":"מכמורת",
    "lat":32.404858,
    "lon":34.871657
  },
  {
    "code":39673,
    "name":"מעלה האשלים/דרך החוף",
    "town":"מכמורת",
    "lat":32.404455,
    "lon":34.870047
  },
  {
    "code":39675,
    "name":"חבצלת החוף/שד. בן גוריון",
    "town":"נתניה",
    "lat":32.283044,
    "lon":34.845488
  },
  {
    "code":39676,
    "name":"אלונים/המורן",
    "town":"נתניה",
    "lat":32.302397,
    "lon":34.87924
  },
  {
    "code":39681,
    "name":"דרך הפארק/אלונים",
    "town":"נתניה",
    "lat":32.30335,
    "lon":34.880314
  },
  {
    "code":39684,
    "name":"מחלף ירקון",
    "town":"פתח תקווה",
    "lat":32.119907,
    "lon":34.903228
  },
  {
    "code":39685,
    "name":"מחלף ירקון",
    "town":"פתח תקווה",
    "lat":32.120707,
    "lon":34.904655
  },
  {
    "code":39686,
    "name":"מחלף ירקון",
    "town":"פתח תקווה",
    "lat":32.12281,
    "lon":34.903896
  },
  {
    "code":39687,
    "name":"וייצמן/זאב גלר",
    "town":"כפר סבא",
    "lat":32.177632,
    "lon":34.897888
  },
  {
    "code":39690,
    "name":"וייצמן/סוקולוב",
    "town":"כפר סבא",
    "lat":32.176338,
    "lon":34.903254
  },
  {
    "code":39699,
    "name":"וייצמן/נורדאו",
    "town":"כפר סבא",
    "lat":32.17278,
    "lon":34.918988
  },
  {
    "code":39705,
    "name":"מחלף קסם",
    "town":"דרום השרון",
    "lat":32.119485,
    "lon":34.938341
  },
  {
    "code":39706,
    "name":"תחנת רכבת",
    "town":"דרום השרון",
    "lat":32.121327,
    "lon":34.935454
  },
  {
    "code":39707,
    "name":" תחנת רכבת ראש העין צפון",
    "town":"דרום השרון",
    "lat":32.123156,
    "lon":34.937429
  },
  {
    "code":39709,
    "name":"מחלף קסם",
    "town":"ראש העין",
    "lat":32.114882,
    "lon":34.941641
  },
  {
    "code":39711,
    "name":"פארק תעשיות",
    "town":"חוף השרון",
    "lat":32.285504,
    "lon":34.87242
  },
  {
    "code":39714,
    "name":"האגוז/הדגנית",
    "town":"אורנית",
    "lat":32.12543,
    "lon":34.987584
  },
  {
    "code":39715,
    "name":"האגוז/האתרוג",
    "town":"אורנית",
    "lat":32.127341,
    "lon":34.986762
  },
  {
    "code":39716,
    "name":"האלון/היקינטון",
    "town":"אורנית",
    "lat":32.131552,
    "lon":34.987616
  },
  {
    "code":39717,
    "name":"צומת כפר סבא מזרח",
    "town":"דרום השרון",
    "lat":32.176573,
    "lon":34.938396
  },
  {
    "code":39719,
    "name":"מסוף וולפסון",
    "town":"תל אביב יפו",
    "lat":32.037359,
    "lon":34.762029
  },
  {
    "code":39721,
    "name":"מתחם ג'י/ילדי טהרן",
    "town":"ראשון לציון",
    "lat":31.985504,
    "lon":34.768874
  },
  {
    "code":39722,
    "name":"רבוצקי/אלעזר",
    "town":"רעננה",
    "lat":32.184212,
    "lon":34.886281
  },
  {
    "code":39723,
    "name":"רבוצקי/הכלנית",
    "town":"רעננה",
    "lat":32.189208,
    "lon":34.887405
  },
  {
    "code":39725,
    "name":"מרכז לקשיש/ההגנה",
    "town":"רעננה",
    "lat":32.188953,
    "lon":34.868116
  },
  {
    "code":39726,
    "name":"פרדס משותף/הרצל",
    "town":"רעננה",
    "lat":32.175277,
    "lon":34.8665
  },
  {
    "code":39730,
    "name":"העצמאות/העלייה",
    "town":"כפר יונה",
    "lat":32.321122,
    "lon":34.927404
  },
  {
    "code":39732,
    "name":"צומת קלנסאווה",
    "town":"קלנסווה",
    "lat":32.288955,
    "lon":34.985954
  },
  {
    "code":39733,
    "name":"צומת קלנסאווה",
    "town":"קלנסווה",
    "lat":32.290139,
    "lon":34.985113
  },
  {
    "code":39734,
    "name":"מעבר אייל",
    "town":"דרום השרון",
    "lat":32.200803,
    "lon":34.97114
  },
  {
    "code":39735,
    "name":"מעבר אייל",
    "town":"דרום השרון",
    "lat":32.201009,
    "lon":34.971327
  },
  {
    "code":39736,
    "name":"שדרות העצמאות/רוטשילד",
    "town":"בת ים",
    "lat":32.026448,
    "lon":34.748045
  },
  {
    "code":39737,
    "name":"דוד אלעזר/קרן היסוד",
    "town":"חולון",
    "lat":32.007736,
    "lon":34.784654
  },
  {
    "code":39738,
    "name":"צומת חניאל",
    "town":"כפר יונה",
    "lat":32.319812,
    "lon":34.939867
  },
  {
    "code":39739,
    "name":"ההסתדרות/שנקר",
    "town":"חולון",
    "lat":32.017504,
    "lon":34.774177
  },
  {
    "code":39741,
    "name":"צומת ינוב",
    "town":"לב השרון",
    "lat":32.314704,
    "lon":34.958084
  },
  {
    "code":39742,
    "name":"צומת תנובות",
    "town":"עמק חפר",
    "lat":32.31417,
    "lon":34.963918
  },
  {
    "code":39743,
    "name":"האיכרים/המצודה",
    "town":"אזור",
    "lat":32.028882,
    "lon":34.799718
  },
  {
    "code":39744,
    "name":"צומת בארותיים",
    "town":"לב השרון",
    "lat":32.311386,
    "lon":34.984668
  },
  {
    "code":39745,
    "name":"משה שרת/הרצוג",
    "town":"אזור",
    "lat":32.028429,
    "lon":34.802301
  },
  {
    "code":39747,
    "name":"המנור/הרוקמים",
    "town":"חולון",
    "lat":32.006179,
    "lon":34.804233
  },
  {
    "code":39749,
    "name":"קמפוס חנקין/חנקין",
    "town":"חולון",
    "lat":32.016078,
    "lon":34.778598
  },
  {
    "code":39750,
    "name":"הופיין/זלמן ארן",
    "town":"חולון",
    "lat":32.014236,
    "lon":34.767039
  },
  {
    "code":39751,
    "name":"מחלף ירקון",
    "town":"פתח תקווה",
    "lat":32.122011,
    "lon":34.901849
  },
  {
    "code":39752,
    "name":"צומת אפק",
    "town":"דרום השרון",
    "lat":32.101994,
    "lon":34.928983
  },
  {
    "code":39755,
    "name":"קמפוס חנקין/חנקין",
    "town":"חולון",
    "lat":32.015547,
    "lon":34.77846
  },
  {
    "code":39756,
    "name":"צומת טירה",
    "town":"דרום השרון",
    "lat":32.23227,
    "lon":34.984439
  },
  {
    "code":39757,
    "name":"צומת טירה",
    "town":"דרום השרון",
    "lat":32.231469,
    "lon":34.98379
  },
  {
    "code":39758,
    "name":"צומת טייבה",
    "town":"טייבה",
    "lat":32.270857,
    "lon":35.00277
  },
  {
    "code":39759,
    "name":"דרך זאב ז'בוטינסקי/אמיל זולא",
    "town":"פתח תקווה",
    "lat":32.092833,
    "lon":34.851667
  },
  {
    "code":39760,
    "name":"מחלף ראש העין מזרח",
    "town":"ראש העין",
    "lat":32.107512,
    "lon":34.961996
  },
  {
    "code":39761,
    "name":"פארק תעשיות",
    "town":"חוף השרון",
    "lat":32.285183,
    "lon":34.872706
  },
  {
    "code":39763,
    "name":"הכלנית/החבצלת",
    "town":"חגור",
    "lat":32.137159,
    "lon":34.948563
  },
  {
    "code":39764,
    "name":"שלדג/שביל השקיעה",
    "town":"מכמורת",
    "lat":32.406935,
    "lon":34.873115
  },
  {
    "code":39765,
    "name":"המלאכה/האורגים",
    "town":"חולון",
    "lat":32.012201,
    "lon":34.797132
  },
  {
    "code":39766,
    "name":"בי''ס מבואות ים",
    "town":"מכמורת",
    "lat":32.403995,
    "lon":34.869589
  },
  {
    "code":39767,
    "name":"התרופה/יד חרוצים",
    "town":"נתניה",
    "lat":32.282134,
    "lon":34.864733
  },
  {
    "code":39769,
    "name":"תחנה מרכזית",
    "town":"נתניה",
    "lat":32.32654,
    "lon":34.859381
  },
  {
    "code":39771,
    "name":"פנחס אילון/בגין",
    "town":"חולון",
    "lat":32.004894,
    "lon":34.777072
  },
  {
    "code":39772,
    "name":"תרי עשר/אלישע",
    "town":"כפר סבא",
    "lat":32.191395,
    "lon":34.939725
  },
  {
    "code":39774,
    "name":"פנחס אילון/האלוף יריב",
    "town":"חולון",
    "lat":32.00911,
    "lon":34.778147
  },
  {
    "code":39775,
    "name":"הרוקמים/הבנאי",
    "town":"חולון",
    "lat":32.008738,
    "lon":34.799953
  },
  {
    "code":39776,
    "name":"הלהב/הרוקמים",
    "town":"חולון",
    "lat":32.007094,
    "lon":34.800973
  },
  {
    "code":39778,
    "name":"עמק החולה/עמק זבולון",
    "town":"כפר סבא",
    "lat":32.181129,
    "lon":34.935128
  },
  {
    "code":39779,
    "name":"עמק החולה/משעול עמק חפר",
    "town":"כפר סבא",
    "lat":32.179096,
    "lon":34.935052
  },
  {
    "code":39781,
    "name":"הגפן/סמטת הרימון",
    "town":"ברקת",
    "lat":32.016848,
    "lon":34.945728
  },
  {
    "code":39782,
    "name":"הגפן/סמטת האורן",
    "town":"ברקת",
    "lat":32.018065,
    "lon":34.944775
  },
  {
    "code":39784,
    "name":"משק",
    "town":"גבעת כ''ח",
    "lat":32.030388,
    "lon":34.933798
  },
  {
    "code":39785,
    "name":"האורן/הברוש",
    "town":"מגשימים",
    "lat":32.043998,
    "lon":34.898296
  },
  {
    "code":39786,
    "name":"יצחק רבין/גרוסמן",
    "town":"פתח תקווה",
    "lat":32.077585,
    "lon":34.859881
  },
  {
    "code":39787,
    "name":"האורגים/המרכבה",
    "town":"חולון",
    "lat":32.00779,
    "lon":34.807276
  },
  {
    "code":39788,
    "name":"'נחשונים ב",
    "town":"נחשונים",
    "lat":32.060531,
    "lon":34.948934
  },
  {
    "code":39790,
    "name":"עמק איילון/עמק החולה",
    "town":"כפר סבא",
    "lat":32.178488,
    "lon":34.935162
  },
  {
    "code":39791,
    "name":"קניון",
    "town":"כפר סבא",
    "lat":32.170317,
    "lon":34.92668
  },
  {
    "code":39792,
    "name":"נורדאו/רופין",
    "town":"כפר סבא",
    "lat":32.170273,
    "lon":34.918641
  },
  {
    "code":39793,
    "name":"בי''ס יצחק שדה",
    "town":"כפר סבא",
    "lat":32.171137,
    "lon":34.918796
  },
  {
    "code":39794,
    "name":"תחנת רכבת נורדאו",
    "town":"כפר סבא",
    "lat":32.167611,
    "lon":34.917442
  },
  {
    "code":39795,
    "name":"תחנת רכבת סוקולוב",
    "town":"הוד השרון",
    "lat":32.170306,
    "lon":34.902028
  },
  {
    "code":39796,
    "name":"דרך קדומים/חטיבת הנח''ל",
    "town":"כפר סבא",
    "lat":32.181721,
    "lon":34.934701
  },
  {
    "code":39797,
    "name":"דרך קדומים/חטיבת יפתח",
    "town":"כפר סבא",
    "lat":32.182076,
    "lon":34.93299
  },
  {
    "code":39798,
    "name":"קדומים/המוביל",
    "town":"כפר סבא",
    "lat":32.182409,
    "lon":34.931742
  },
  {
    "code":39799,
    "name":"בן יהודה/דרך המוביל",
    "town":"כפר סבא",
    "lat":32.182961,
    "lon":34.930759
  },
  {
    "code":39800,
    "name":"דוכיפת/דרך המוביל",
    "town":"כפר סבא",
    "lat":32.184119,
    "lon":34.930649
  },
  {
    "code":39801,
    "name":"דוכיפת/דרך המוביל",
    "town":"כפר סבא",
    "lat":32.184437,
    "lon":34.930744
  },
  {
    "code":39802,
    "name":"דרך המוביל/העגורים",
    "town":"כפר סבא",
    "lat":32.185758,
    "lon":34.930816
  },
  {
    "code":39803,
    "name":"נחליאלי/עפרוני",
    "town":"כפר סבא",
    "lat":32.186929,
    "lon":34.929661
  },
  {
    "code":39805,
    "name":"הזמיר/נחליאלי",
    "town":"כפר סבא",
    "lat":32.185322,
    "lon":34.928231
  },
  {
    "code":39806,
    "name":"זמיר/נחליאלי",
    "town":"כפר סבא",
    "lat":32.185743,
    "lon":34.928158
  },
  {
    "code":39807,
    "name":"זמיר/הנשר",
    "town":"כפר סבא",
    "lat":32.184563,
    "lon":34.927902
  },
  {
    "code":39808,
    "name":"קאנטרי קלאב/בן יהודה",
    "town":"כפר סבא",
    "lat":32.183241,
    "lon":34.927043
  },
  {
    "code":39809,
    "name":"מטווח עירוני/בן יהודה",
    "town":"כפר סבא",
    "lat":32.183184,
    "lon":34.922955
  },
  {
    "code":39810,
    "name":"הגליל/בן יהודה",
    "town":"כפר סבא",
    "lat":32.183181,
    "lon":34.920514
  },
  {
    "code":39812,
    "name":"אז''ר/פרופ' דינור",
    "town":"כפר סבא",
    "lat":32.182045,
    "lon":34.917934
  },
  {
    "code":39813,
    "name":"טירת צבי/הגליל",
    "town":"כפר סבא",
    "lat":32.180808,
    "lon":34.917954
  },
  {
    "code":39814,
    "name":"אז''ר/תל חי",
    "town":"כפר סבא",
    "lat":32.182117,
    "lon":34.9172
  },
  {
    "code":39815,
    "name":"יבנה/חברון",
    "town":"כפר סבא",
    "lat":32.180756,
    "lon":34.915194
  },
  {
    "code":39816,
    "name":"בר אילן/נחל הדס",
    "town":"כפר סבא",
    "lat":32.181731,
    "lon":34.913225
  },
  {
    "code":39817,
    "name":"אז''ר/בר אילן",
    "town":"כפר סבא",
    "lat":32.182878,
    "lon":34.914353
  },
  {
    "code":39818,
    "name":"משה דיין/זמנהוף",
    "town":"כפר סבא",
    "lat":32.177858,
    "lon":34.920528
  },
  {
    "code":39819,
    "name":"הגליל/זמנהוף",
    "town":"כפר סבא",
    "lat":32.177963,
    "lon":34.918213
  },
  {
    "code":39820,
    "name":"הגליל/נעורים",
    "town":"כפר סבא",
    "lat":32.17645,
    "lon":34.917719
  },
  {
    "code":39821,
    "name":"הכרמל/תל חי",
    "town":"כפר סבא",
    "lat":32.176913,
    "lon":34.914486
  },
  {
    "code":39822,
    "name":"וייצמן/תל חי",
    "town":"כפר סבא",
    "lat":32.173939,
    "lon":34.914681
  },
  {
    "code":39824,
    "name":"הכרמל/משעול השיר",
    "town":"כפר סבא",
    "lat":32.177608,
    "lon":34.911397
  },
  {
    "code":39826,
    "name":"הכרמל/העבודה",
    "town":"כפר סבא",
    "lat":32.17846,
    "lon":34.907682
  },
  {
    "code":39827,
    "name":"השחר/השלום",
    "town":"כפר סבא",
    "lat":32.180472,
    "lon":34.909797
  },
  {
    "code":39830,
    "name":"בית חולים מאיר",
    "town":"כפר סבא",
    "lat":32.181189,
    "lon":34.897926
  },
  {
    "code":39831,
    "name":"בית חולים מאיר",
    "town":"כפר סבא",
    "lat":32.181193,
    "lon":34.89765
  },
  {
    "code":39832,
    "name":"מכבי אש/טשרניחובסקי",
    "town":"כפר סבא",
    "lat":32.179139,
    "lon":34.895683
  },
  {
    "code":39833,
    "name":"טשרניחובסקי/גולומב",
    "town":"כפר סבא",
    "lat":32.179585,
    "lon":34.895912
  },
  {
    "code":39834,
    "name":"טשרניחובסקי/סנה",
    "town":"כפר סבא",
    "lat":32.182538,
    "lon":34.899128
  },
  {
    "code":39835,
    "name":"טשרניחובסקי/סמילנסקי",
    "town":"כפר סבא",
    "lat":32.18366,
    "lon":34.900633
  },
  {
    "code":39836,
    "name":"טשרניחובסקי/בן יהודה",
    "town":"כפר סבא",
    "lat":32.186509,
    "lon":34.903728
  },
  {
    "code":39837,
    "name":"טשרניחובסקי/בן יהודה",
    "town":"כפר סבא",
    "lat":32.186513,
    "lon":34.903426
  },
  {
    "code":39838,
    "name":"בגין/כצנלסון",
    "town":"כפר סבא",
    "lat":32.187228,
    "lon":34.903399
  },
  {
    "code":39839,
    "name":"טשרניחובסקי/רמז",
    "town":"כפר סבא",
    "lat":32.187546,
    "lon":34.904511
  },
  {
    "code":39840,
    "name":"גבעולים/דוד רמז",
    "town":"כפר סבא",
    "lat":32.187997,
    "lon":34.904513
  },
  {
    "code":39841,
    "name":"טשרניחובסקי/כנפי נשרים",
    "town":"כפר סבא",
    "lat":32.188882,
    "lon":34.906064
  },
  {
    "code":39842,
    "name":"טשרניחובסקי/כנפי נשרים",
    "town":"כפר סבא",
    "lat":32.189203,
    "lon":34.906032
  },
  {
    "code":39843,
    "name":"דוד רמז/האחווה",
    "town":"כפר סבא",
    "lat":32.189926,
    "lon":34.902619
  },
  {
    "code":39844,
    "name":"מרכז מסחרי/רמז",
    "town":"כפר סבא",
    "lat":32.190348,
    "lon":34.902003
  },
  {
    "code":39845,
    "name":"דוד רמז/ויתקין",
    "town":"כפר סבא",
    "lat":32.190849,
    "lon":34.900726
  },
  {
    "code":39846,
    "name":"דוד רמז/ויתקין",
    "town":"כפר סבא",
    "lat":32.191133,
    "lon":34.899803
  },
  {
    "code":39847,
    "name":"רמז - מרכז הנוער",
    "town":"כפר סבא",
    "lat":32.191277,
    "lon":34.896965
  },
  {
    "code":39848,
    "name":"בגין/משה סנה",
    "town":"כפר סבא",
    "lat":32.189361,
    "lon":34.898453
  },
  {
    "code":39849,
    "name":"שד. מנחם בגין/האחדות",
    "town":"כפר סבא",
    "lat":32.188521,
    "lon":34.899542
  },
  {
    "code":39850,
    "name":"סנה/קדושי קהיר",
    "town":"כפר סבא",
    "lat":32.187255,
    "lon":34.896727
  },
  {
    "code":39851,
    "name":"משה סנה/השמחה",
    "town":"כפר סבא",
    "lat":32.185284,
    "lon":34.896169
  },
  {
    "code":39852,
    "name":"אזור תעשיה סנטרל פארק 2000",
    "town":"כפר סבא",
    "lat":32.161783,
    "lon":34.934195
  },
  {
    "code":39853,
    "name":"אזור תעשיה סנטרל פארק 2000",
    "town":"כפר סבא",
    "lat":32.161861,
    "lon":34.934247
  },
  {
    "code":39854,
    "name":"אזור תעשיה סנטרל פארק 2000",
    "town":"כפר סבא",
    "lat":32.161023,
    "lon":34.935944
  },
  {
    "code":39855,
    "name":"אזור תעשיה סנטרל פארק 2000",
    "town":"כפר סבא",
    "lat":32.161011,
    "lon":34.936205
  },
  {
    "code":39856,
    "name":"תרי עשר/גדעון",
    "town":"כפר סבא",
    "lat":32.191937,
    "lon":34.937308
  },
  {
    "code":39857,
    "name":"ישעיהו/בת יפתח",
    "town":"כפר סבא",
    "lat":32.190078,
    "lon":34.937597
  },
  {
    "code":39858,
    "name":"השחר/פינס",
    "town":"כפר סבא",
    "lat":32.18191,
    "lon":34.910248
  },
  {
    "code":39859,
    "name":"ברש/ש''י עגנון",
    "town":"כפר סבא",
    "lat":32.184826,
    "lon":34.907679
  },
  {
    "code":39860,
    "name":"ברש/ש''י עגנון",
    "town":"כפר סבא",
    "lat":32.184983,
    "lon":34.907617
  },
  {
    "code":39862,
    "name":"קרית חינוך/אז''ר",
    "town":"כפר סבא",
    "lat":32.183814,
    "lon":34.910214
  },
  {
    "code":39863,
    "name":"אז''ר / השחר",
    "town":"כפר סבא",
    "lat":32.183435,
    "lon":34.911487
  },
  {
    "code":39864,
    "name":"יערה/לוינסקי",
    "town":"כפר סבא",
    "lat":32.185972,
    "lon":34.89984
  },
  {
    "code":39867,
    "name":"בן גוריון/פרדס משותף",
    "town":"רעננה",
    "lat":32.175102,
    "lon":34.869283
  },
  {
    "code":39870,
    "name":"הפרחים/משה דיין",
    "town":"רעננה",
    "lat":32.177534,
    "lon":34.861213
  },
  {
    "code":39872,
    "name":"המלכים/יעקב דורי",
    "town":"רעננה",
    "lat":32.179713,
    "lon":34.860052
  },
  {
    "code":39873,
    "name":"המלכים/יגאל ידין",
    "town":"רעננה",
    "lat":32.18242,
    "lon":34.861088
  },
  {
    "code":39874,
    "name":"פיכמן/הופיין",
    "town":"חולון",
    "lat":32.013709,
    "lon":34.775171
  },
  {
    "code":39875,
    "name":"המלכים/יגאל ידין",
    "town":"רעננה",
    "lat":32.182551,
    "lon":34.860937
  },
  {
    "code":39876,
    "name":"הנשיאים/וינגייט",
    "town":"רעננה",
    "lat":32.185327,
    "lon":34.861798
  },
  {
    "code":39877,
    "name":"הנשיאים/וינגייט",
    "town":"רעננה",
    "lat":32.185877,
    "lon":34.861952
  },
  {
    "code":39879,
    "name":"החי''ל/חפץ חיים",
    "town":"רעננה",
    "lat":32.18532,
    "lon":34.867536
  },
  {
    "code":39880,
    "name":"החי''ל/חפץ חיים",
    "town":"רעננה",
    "lat":32.184717,
    "lon":34.86783
  },
  {
    "code":39882,
    "name":"אלי כהן/חפץ חיים",
    "town":"רעננה",
    "lat":32.1865,
    "lon":34.868377
  },
  {
    "code":39883,
    "name":"קרן היסוד/גולומב",
    "town":"רעננה",
    "lat":32.183551,
    "lon":34.871085
  },
  {
    "code":39884,
    "name":"קרן היסוד/גולומב",
    "town":"רעננה",
    "lat":32.182968,
    "lon":34.870672
  },
  {
    "code":39885,
    "name":"בורוכוב/הנגב",
    "town":"רעננה",
    "lat":32.181408,
    "lon":34.8765
  },
  {
    "code":39886,
    "name":"בורוכוב/החשמונאים",
    "town":"רעננה",
    "lat":32.185277,
    "lon":34.877717
  },
  {
    "code":39887,
    "name":"ההסתדרות/בורוכוב",
    "town":"רעננה",
    "lat":32.18594,
    "lon":34.877544
  },
  {
    "code":39889,
    "name":"ההסתדרות/בר אילן",
    "town":"רעננה",
    "lat":32.186605,
    "lon":34.874965
  },
  {
    "code":39890,
    "name":"ההסתדרות/קרן היסוד",
    "town":"רעננה",
    "lat":32.186938,
    "lon":34.872993
  },
  {
    "code":39891,
    "name":"בורוכוב/ההגנה",
    "town":"רעננה",
    "lat":32.187434,
    "lon":34.878434
  },
  {
    "code":39892,
    "name":"בורוכוב/הפלמ''ח",
    "town":"רעננה",
    "lat":32.190725,
    "lon":34.878218
  },
  {
    "code":39893,
    "name":"מקלט ציבורי/הפלמ''ח",
    "town":"רעננה",
    "lat":32.190605,
    "lon":34.876231
  },
  {
    "code":39894,
    "name":"בורוכוב/הפלמ''ח",
    "town":"רעננה",
    "lat":32.189883,
    "lon":34.878352
  },
  {
    "code":39895,
    "name":"בורוכוב/ברל כצנלסון",
    "town":"רעננה",
    "lat":32.191703,
    "lon":34.878156
  },
  {
    "code":39896,
    "name":"בורוכוב/וייצמן",
    "town":"רעננה",
    "lat":32.192384,
    "lon":34.878669
  },
  {
    "code":39898,
    "name":"ויצמן/קרן היסוד",
    "town":"רעננה",
    "lat":32.192346,
    "lon":34.875194
  },
  {
    "code":39899,
    "name":"קרן היסוד/וייצמן",
    "town":"רעננה",
    "lat":32.191924,
    "lon":34.874179
  },
  {
    "code":39900,
    "name":"החרושת/וייצמן",
    "town":"רעננה",
    "lat":32.192411,
    "lon":34.880429
  },
  {
    "code":39902,
    "name":"עקיבא/האלה",
    "town":"רעננה",
    "lat":32.188874,
    "lon":34.883296
  },
  {
    "code":39903,
    "name":"עקיבא/שד. הרדוף",
    "town":"רעננה",
    "lat":32.189384,
    "lon":34.883134
  },
  {
    "code":39905,
    "name":"התדהר/השיזף",
    "town":"רעננה",
    "lat":32.192173,
    "lon":34.883955
  },
  {
    "code":39907,
    "name":"התדהר/התעשיה",
    "town":"רעננה",
    "lat":32.195852,
    "lon":34.884409
  },
  {
    "code":39908,
    "name":"התדהר/התעשייה",
    "town":"רעננה",
    "lat":32.197342,
    "lon":34.88446
  },
  {
    "code":39910,
    "name":"התעשייה/זרחין",
    "town":"רעננה",
    "lat":32.196812,
    "lon":34.883081
  },
  {
    "code":39911,
    "name":"החרושת/המסגר",
    "town":"רעננה",
    "lat":32.19559,
    "lon":34.880562
  },
  {
    "code":39912,
    "name":"החרושת/המסגר",
    "town":"רעננה",
    "lat":32.195385,
    "lon":34.880483
  },
  {
    "code":39913,
    "name":"החרושת/ויצמן",
    "town":"רעננה",
    "lat":32.193588,
    "lon":34.880767
  },
  {
    "code":39914,
    "name":"החרושת/ויצמן",
    "town":"רעננה",
    "lat":32.193105,
    "lon":34.880975
  },
  {
    "code":39915,
    "name":"קניון רננים",
    "town":"רעננה",
    "lat":32.196601,
    "lon":34.879661
  },
  {
    "code":39917,
    "name":"הסדנא/התעשייה",
    "town":"רעננה",
    "lat":32.196095,
    "lon":34.87868
  },
  {
    "code":39918,
    "name":"קאנטרי/הסדנא",
    "town":"רעננה",
    "lat":32.193913,
    "lon":34.878379
  },